,loggingTime(txt),accelerometerTimestamp_sinceReboot(s),accelerometerAccelerationX(G),accelerometerAccelerationY(G),accelerometerAccelerationZ(G),motionTimestamp_sinceReboot(s),motionYaw(rad),motionRoll(rad),motionPitch(rad),motionRotationRateX(rad/s),motionRotationRateY(rad/s),motionRotationRateZ(rad/s),motionUserAccelerationX(G),motionUserAccelerationY(G),motionUserAccelerationZ(G),motionAttitudeReferenceFrame(txt),motionQuaternionX(R),motionQuaternionY(R),motionQuaternionZ(R),motionQuaternionW(R),motionGravityX(G),motionGravityY(G),motionGravityZ(G),motionMagneticFieldX(µT),motionMagneticFieldY(µT),motionMagneticFieldZ(µT),motionHeading(°),motionMagneticFieldCalibrationAccuracy(Z),activityTimestamp_sinceReboot(s),activity(txt),activityActivityConfidence(Z),activityActivityStartDate(txt),pedometerStartDate(txt),pedometerNumberofSteps(N),pedometerAverageActivePace(s/m),pedometerCurrentPace(s/m),pedometerCurrentCadence(steps/s),pedometerDistance(m),pedometerFloorAscended(N),pedometerFloorDescended(N),pedometerEndDate(txt),altimeterTimestamp_sinceReboot(s),altimeterReset(bool),altimeterRelativeAltitude(m),altimeterPressure(kPa),label
0,2024-04-17T12:59:26.589+02:00,126107.669189625,-0.0547943115234375,-0.1903839111328125,-0.9761505126953124,126107.659211625,-0.0619921630772778,-0.070578772074473,0.2103322919108393,0.0068746851757168,-0.0364807471632957,0.0725578367710113,0.0395165532827377,0.0031270086765289,0.0076923370361328,XArbitraryZVertical,0.1037692636480329,-0.0383214671777672,-0.0345025727386579,0.9932637778681036,-0.0689660385251045,-0.2087848782539368,-0.9755268096923828,0,0,0,-1,-1,126070.516262,unknown,2,2024-04-17T12:58:49.415+02:00,,0,0,0,0,0,0,0,,0.0,0,0.0,0.0,
1,2024-04-17T12:59:26.604+02:00,126107.704111625,-0.0711517333984375,-0.1979827880859375,-1.002609252929688,126107.659211625,-0.0619921630772778,-0.070578772074473,0.2103322919108393,0.0068746851757168,-0.0364807471632957,0.0725578367710113,0.0395165532827377,0.0031270086765289,0.0076923370361328,XArbitraryZVertical,0.1037692636480329,-0.0383214671777672,-0.0345025727386579,0.9932637778681036,-0.0689660385251045,-0.2087848782539368,-0.9755268096923828,0,0,0,-1,-1,126070.516262,unknown,2,2024-04-17T12:58:49.415+02:00,,0,0,0,0,0,0,0,,0.0,0,0.0,0.0,
2,2024-04-17T12:59:26.639+02:00,126107.739034625,-0.0759124755859375,-0.21246337890625,-1.00225830078125,126107.719078625,-0.0588283868076278,-0.0719719689721511,0.2061072197713383,0.0245354808866977,0.0023736115545034,0.0742399618029594,0.0176534801721572,0.0193789452314376,-0.0408957600593566,XArbitraryZVertical,0.1017077197786895,-0.0387953401510159,-0.0329345057113667,0.9935119001722796,-0.070387877523899,-0.2046510726213455,-0.9763008952140808,0,0,0,-1,-1,126070.516262,unknown,2,2024-04-17T12:58:49.415+02:00,,0,0,0,0,0,0,0,,0.0,0,0.0,0.0,
3,2024-04-17T12:59:26.674+02:00,126107.773957625,-0.0619354248046875,-0.2203369140625,-0.966400146484375,126107.719078625,-0.0588283868076278,-0.0719719689721511,0.2061072197713383,0.0245354808866977,0.0023736115545034,0.0742399618029594,0.0176534801721572,0.0193789452314376,-0.0408957600593566,XArbitraryZVertical,0.1017077197786895,-0.0387953401510159,-0.0329345057113667,0.9935119001722796,-0.070387877523899,-0.2046510726213455,-0.9763008952140808,0,0,0,-1,-1,126070.516262,unknown,2,2024-04-17T12:58:49.415+02:00,,0,0,0,0,0,0,0,,0.0,0,0.0,0.0,
4,2024-04-17T12:59:26.709+02:00,126107.808879625,-0.0821075439453125,-0.1943511962890625,-0.9805908203125,126107.778946625,-0.058831735020312,-0.0718737464125044,0.2025474510318648,-0.069733627140522,0.0158583931624889,-0.0283442009240388,0.0084084048867225,-0.0191714614629745,0.0106281042098999,XArbitraryZVertical,0.099940389055451,-0.0387011957269244,-0.0328729220173883,0.9936969136104724,-0.0703438520431518,-0.2011653482913971,-0.9770282506942748,0,0,0,-1,-1,126070.516262,unknown,2,2024-04-17T12:58:49.415+02:00,,0,0,0,0,0,0,0,,0.0,0,0.0,0.0,
5,2024-04-17T12:59:26.744+02:00,126107.843802625,-0.075439453125,-0.2148284912109375,-0.9879608154296876,126107.838813625,-0.0603593897296377,-0.0708986944324516,0.2049242162939983,0.0228693205863237,0.0267166532576084,-0.013535656966269,-0.0124605447053909,-0.0131359696388244,-0.0113135576248168,XArbitraryZVertical,0.1011082472299906,-0.0383244435148123,-0.0336214461754334,0.9935683859882564,-0.0693570971488952,-0.2034929692745209,-0.9766167402267456,0,0,0,-1,-1,126070.516262,unknown,2,2024-04-17T12:58:49.415+02:00,,0,0,0,0,0,0,0,,0.0,0,0.0,0.0,
6,2024-04-17T12:59:26.779+02:00,126107.878725625,-0.060028076171875,-0.193817138671875,-0.9903564453125,126107.838813625,-0.0603593897296377,-0.0708986944324516,0.2049242162939983,0.0228693205863237,0.0267166532576084,-0.013535656966269,-0.0124605447053909,-0.0131359696388244,-0.0113135576248168,XArbitraryZVertical,0.1011082472299906,-0.0383244435148123,-0.0336214461754334,0.9935683859882564,-0.0693570971488952,-0.2034929692745209,-0.9766167402267456,0,0,0,-1,-1,126070.516262,unknown,2,2024-04-17T12:58:49.415+02:00,,0,0,0,0,0,0,0,,0.0,0,0.0,0.0,
7,2024-04-17T12:59:26.816+02:00,126107.913648625,-0.07550048828125,-0.2157135009765625,-0.976043701171875,126107.898681625,-0.0609141289242817,-0.0689916104282422,0.2036069597396891,-0.0404128059744834,0.01974917948246,-0.0051269540563225,-0.0057598277926445,-0.0029817521572113,-0.010214626789093,XArbitraryZVertical,0.1004753175464986,-0.0373874439894956,-0.0337800718771718,0.9936628977409242,-0.0675129070878028,-0.202203094959259,-0.9770137667655944,0,0,0,-1,-1,126070.516262,unknown,2,2024-04-17T12:58:49.415+02:00,,0,0,0,0,0,0,0,,0.0,0,0.0,0.0,
8,2024-04-17T12:59:26.849+02:00,126107.948570625,-0.062957763671875,-0.207000732421875,-0.9827117919921876,126107.898681625,-0.0609141289242817,-0.0689916104282422,0.2036069597396891,-0.0404128059744834,0.01974917948246,-0.0051269540563225,-0.0057598277926445,-0.0029817521572113,-0.010214626789093,XArbitraryZVertical,0.1004753175464986,-0.0373874439894956,-0.0337800718771718,0.9936628977409242,-0.0675129070878028,-0.202203094959259,-0.9770137667655944,0,0,0,-1,-1,126070.516262,unknown,2,2024-04-17T12:58:49.415+02:00,,0,0,0,0,0,0,0,,0.0,0,0.0,0.0,
9,2024-04-17T12:59:26.884+02:00,126107.983493625,-0.06866455078125,-0.2128448486328125,-0.9832305908203124,126107.958548625,-0.0606264936337481,-0.0690487233003208,0.2007097027255965,-0.072797954082489,-0.0086345821619033,-0.0059419963508844,0.0021333470940589,-0.0123049914836883,-0.0043433308601379,XArbitraryZVertical,0.0990398643300279,-0.0373627557826359,-0.0335947366694675,0.9938142286122932,-0.0676088407635688,-0.1993648409843445,-0.977590262889862,0,0,0,-1,-1,126070.516262,unknown,2,2024-04-17T12:58:49.415+02:00,,0,0,0,0,0,0,0,,0.0,0,0.0,0.0,
10,2024-04-17T12:59:26.919+02:00,126108.018416625,-0.0691680908203125,-0.19830322265625,-0.9911956787109376,126107.958548625,-0.0606264936337481,-0.0690487233003208,0.2007097027255965,-0.072797954082489,-0.0086345821619033,-0.0059419963508844,0.0021333470940589,-0.0123049914836883,-0.0043433308601379,XArbitraryZVertical,0.0990398643300279,-0.0373627557826359,-0.0335947366694675,0.9938142286122932,-0.0676088407635688,-0.1993648409843445,-0.977590262889862,0,0,0,-1,-1,126070.516262,unknown,2,2024-04-17T12:58:49.415+02:00,,0,0,0,0,0,0,0,,0.0,0,0.0,0.0,
11,2024-04-17T12:59:26.953+02:00,126108.053338625,-0.073699951171875,-0.1962890625,-0.989013671875,126108.018416625,-0.0609395559304319,-0.0699566761719305,0.1964358862496544,-0.0185972973704338,-0.0090124849230051,0.0083661032840609,-0.0017266571521759,0.001525804400444,-0.0123074054718017,XArbitraryZVertical,0.0968943604884005,-0.0377720833944634,-0.0337273762003403,0.9940057402847408,-0.0685553476214408,-0.1951750069856644,-0.9783695340156556,0,0,0,-1,-1,126070.516262,unknown,2,2024-04-17T12:58:49.415+02:00,,0,0,0,0,0,0,0,,0.0,0,0.0,0.0,
12,2024-04-17T12:59:26.988+02:00,126108.088261625,-0.0727386474609375,-0.1967926025390625,-0.982940673828125,126108.078283625,-0.0610995683725847,-0.0701126656558404,0.1941270342539111,-0.0715066716074943,0.0022705681622028,-0.0032481322996318,-0.0074630603194236,-0.0079413056373596,-0.0112913250923156,XArbitraryZVertical,0.0957408968078117,-0.0378262332359827,-0.0337776456620298,0.9941137192646972,-0.0687393471598625,-0.1929100453853607,-0.9788057208061218,0,0,0,-1,-1,126070.516262,unknown,2,2024-04-17T12:58:49.415+02:00,,0,0,0,0,0,0,0,,0.0,0,0.0,0.0,
13,2024-04-17T12:59:27.026+02:00,126108.123184625,-0.074249267578125,-0.1889801025390625,-0.9885406494140624,126108.078283625,-0.0610995683725847,-0.0701126656558404,0.1941270342539111,-0.0715066716074943,0.0022705681622028,-0.0032481322996318,-0.0074630603194236,-0.0079413056373596,-0.0112913250923156,XArbitraryZVertical,0.0957408968078117,-0.0378262332359827,-0.0337776456620298,0.9941137192646972,-0.0687393471598625,-0.1929100453853607,-0.9788057208061218,0,0,0,-1,-1,126070.516262,unknown,2,2024-04-17T12:58:49.415+02:00,,0,0,0,0,0,0,0,,0.0,0,0.0,0.0,
14,2024-04-17T12:59:27.058+02:00,126108.158107625,-0.0641937255859375,-0.196197509765625,-0.998321533203125,126108.138151625,-0.0611484369868537,-0.0696314724422214,0.1923632474286064,0.0097902249544858,0.0139850508421659,0.0057105510495603,-0.0016238763928413,-0.0013409554958343,-0.0149335265159606,XArbitraryZVertical,0.0948711816187294,-0.0375655380516641,-0.0337509629324672,0.9942078038562104,-0.0682919174432754,-0.1911790817975998,-0.9791765809059144,0,0,0,-1,-1,126070.516262,unknown,2,2024-04-17T12:58:49.415+02:00,,0,0,0,0,0,0,0,,0.0,0,0.0,0.0,
15,2024-04-17T12:59:27.093+02:00,126108.193029625,-0.067779541015625,-0.1987457275390625,-0.9869842529296876,126108.138151625,-0.0611484369868537,-0.0696314724422214,0.1923632474286064,0.0097902249544858,0.0139850508421659,0.0057105510495603,-0.0016238763928413,-0.0013409554958343,-0.0149335265159606,XArbitraryZVertical,0.0948711816187294,-0.0375655380516641,-0.0337509629324672,0.9942078038562104,-0.0682919174432754,-0.1911790817975998,-0.9791765809059144,0,0,0,-1,-1,126070.516262,unknown,2,2024-04-17T12:58:49.415+02:00,,0,0,0,0,0,0,0,,0.0,0,0.0,0.0,
16,2024-04-17T12:59:27.128+02:00,126108.227952625,-0.06884765625,-0.2003326416015625,-0.988037109375,126108.198018625,-0.0606641558592838,-0.0700369570499481,0.1927564995018327,-0.0141035225242376,0.0022421274334192,0.0095668463036417,0.0009041205048561,-0.0071805566549301,-0.0079105496406555,XArbitraryZVertical,0.0950689915571138,-0.0377493979614306,-0.0335357300185479,0.9941893665783516,-0.0686836838722229,-0.191565066576004,-0.9790737628936768,0,0,0,-1,-1,126070.516262,unknown,2,2024-04-17T12:58:49.415+02:00,,0,0,0,0,0,0,0,,0.0,0,0.0,0.0,
17,2024-04-17T12:59:27.163+02:00,126108.262875625,-0.0656585693359375,-0.1972198486328125,-0.993804931640625,126108.257886625,-0.0600145806397344,-0.0697795025907362,0.1938599024814019,0.0391903258860111,0.0131064560264349,0.0081515666097402,-0.0018041357398033,0.0003872811794281,-0.0141925811767578,XArbitraryZVertical,0.0956341304248026,-0.037605150414914,-0.0332181414555448,0.9941512094244483,-0.0684168338775634,-0.1926479190587997,-0.9788799285888672,0,0,0,-1,-1,126070.516262,unknown,2,2024-04-17T12:58:49.415+02:00,,0,0,0,0,0,0,0,,0.0,0,0.0,0.0,
18,2024-04-17T12:59:27.198+02:00,126108.297797625,-0.0650482177734375,-0.1950836181640625,-0.9891204833984376,126108.257886625,-0.0600145806397344,-0.0697795025907362,0.1938599024814019,0.0391903258860111,0.0131064560264349,0.0081515666097402,-0.0018041357398033,0.0003872811794281,-0.0141925811767578,XArbitraryZVertical,0.0956341304248026,-0.037605150414914,-0.0332181414555448,0.9941512094244483,-0.0684168338775634,-0.1926479190587997,-0.9788799285888672,0,0,0,-1,-1,126070.516262,unknown,2,2024-04-17T12:58:49.415+02:00,,0,0,0,0,0,0,0,,0.0,0,0.0,0.0,
19,2024-04-17T12:59:27.233+02:00,126108.332720625,-0.0772552490234375,-0.1936798095703125,-0.983856201171875,126108.317753625,-0.0600968088021828,-0.0692531970708376,0.1952848084528653,0.0046023875474929,0.0055951047688722,-0.0029179384000599,0.0025444105267524,-0.0095977783203125,-0.0047269463539123,XArbitraryZVertical,0.0963497402622187,-0.037366362115461,-0.0332563055474065,0.9940898799315666,-0.0678825750946998,-0.1940459311008453,-0.9786409735679626,0,0,0,-1,-1,126070.516262,unknown,2,2024-04-17T12:58:49.415+02:00,,0,0,0,0,0,0,0,,0.0,0,0.0,0.0,
20,2024-04-17T12:59:27.268+02:00,126108.367643625,-0.0613555908203125,-0.1892547607421875,-0.988555908203125,126108.317753625,-0.0600968088021828,-0.0692531970708376,0.1952848084528653,0.0046023875474929,0.0055951047688722,-0.0029179384000599,0.0025444105267524,-0.0095977783203125,-0.0047269463539123,XArbitraryZVertical,0.0963497402622187,-0.037366362115461,-0.0332563055474065,0.9940898799315666,-0.0678825750946998,-0.1940459311008453,-0.9786409735679626,0,0,0,-1,-1,126070.516262,unknown,2,2024-04-17T12:58:49.415+02:00,,0,0,0,0,0,0,0,,0.0,0,0.0,0.0,
21,2024-04-17T12:59:27.303+02:00,126108.402566625,-0.0666351318359375,-0.2036590576171875,-0.980224609375,126108.377621625,-0.0600124131519968,-0.068450761041593,0.1963085223868151,0.0419064834713935,0.0037934575229883,-0.0119982901960611,0.0048582628369331,0.0083436518907547,-0.0083810091018676,XArbitraryZVertical,0.09687356592675,-0.0369770092787135,-0.0331916200721959,0.994055684946017,-0.0670836344361305,-0.1950500905513763,-0.9784964323043824,0,0,0,-1,-1,126070.516262,unknown,2,2024-04-17T12:58:49.415+02:00,,0,0,0,0,0,0,0,,0.0,0,0.0,0.0,
22,2024-04-17T12:59:27.338+02:00,126108.437488625,-0.0655975341796875,-0.19732666015625,-0.982330322265625,126108.377621625,-0.0600124131519968,-0.068450761041593,0.1963085223868151,0.0419064834713935,0.0037934575229883,-0.0119982901960611,0.0048582628369331,0.0083436518907547,-0.0083810091018676,XArbitraryZVertical,0.09687356592675,-0.0369770092787135,-0.0331916200721959,0.994055684946017,-0.0670836344361305,-0.1950500905513763,-0.9784964323043824,0,0,0,-1,-1,126070.516262,unknown,2,2024-04-17T12:58:49.415+02:00,,0,0,0,0,0,0,0,,0.0,0,0.0,0.0,
23,2024-04-17T12:59:27.373+02:00,126108.472411625,-0.0693206787109375,-0.200958251953125,-0.989898681640625,126108.437488625,-0.0596424421235854,-0.0684970392060618,0.197171307131875,-0.0238596592098474,0.0023610964417457,0.0219658389687538,-0.0002502053976058,-0.00933438539505,-0.0018232464790344,XArbitraryZVertical,0.0973085443912984,-0.0369934313312683,-0.0330234049356155,0.9940182304211312,-0.0671173706650733,-0.1958962380886078,-0.9783250689506532,0,0,0,-1,-1,126070.516262,unknown,2,2024-04-17T12:58:49.415+02:00,,0,0,0,0,0,0,0,,0.0,0,0.0,0.0,
24,2024-04-17T12:59:27.408+02:00,126108.507334625,-0.065277099609375,-0.2171173095703125,-0.985137939453125,126108.497356625,-0.0595515346823651,-0.0678528984380253,0.1981507429069515,0.0179875250905752,0.0120322331786155,0.0094002466648817,0.0021735802292823,-0.0145996063947677,-0.0117682814598083,XArbitraryZVertical,0.097807723607433,-0.0366817243255682,-0.0329619661254343,0.9939828184154492,-0.0664741396903991,-0.1968566030263901,-0.9781761765480042,0,0,0,-1,-1,126070.516262,unknown,2,2024-04-17T12:58:49.415+02:00,,0,0,0,0,0,0,0,,0.0,0,0.0,0.0,
25,2024-04-17T12:59:27.443+02:00,126108.542257625,-0.05975341796875,-0.1964111328125,-0.980712890625,126108.497356625,-0.0595515346823651,-0.0678528984380253,0.1981507429069515,0.0179875250905752,0.0120322331786155,0.0094002466648817,0.0021735802292823,-0.0145996063947677,-0.0117682814598083,XArbitraryZVertical,0.097807723607433,-0.0366817243255682,-0.0329619661254343,0.9939828184154492,-0.0664741396903991,-0.1968566030263901,-0.9781761765480042,0,0,0,-1,-1,126070.516262,unknown,2,2024-04-17T12:58:49.415+02:00,,0,0,0,0,0,0,0,,0.0,0,0.0,0.0,
26,2024-04-17T12:59:27.478+02:00,126108.577179625,-0.07122802734375,-0.2074737548828125,-0.9833526611328124,126108.557223625,-0.0590979127376187,-0.0681357244421093,0.197700608298024,0.0153083391487598,-0.0115371039137244,-0.0102255754172802,0.0027919486165046,-0.0007587224245071,0.0008134245872497,XArbitraryZVertical,0.0975876509757804,-0.0367942467277971,-0.0327433831074466,0.9940075022239564,-0.0667568147182464,-0.1964152455329895,-0.9782456755638124,0,0,0,-1,-1,126070.516262,unknown,2,2024-04-17T12:58:49.415+02:00,,0,0,0,0,0,0,0,,0.0,0,0.0,0.0,
27,2024-04-17T12:59:27.513+02:00,126108.6121025417,-0.0699462890625,-0.194549560546875,-0.9900665283203124,126108.557223625,-0.0590979127376187,-0.0681357244421093,0.197700608298024,0.0153083391487598,-0.0115371039137244,-0.0102255754172802,0.0027919486165046,-0.0007587224245071,0.0008134245872497,XArbitraryZVertical,0.0975876509757804,-0.0367942467277971,-0.0327433831074466,0.9940075022239564,-0.0667568147182464,-0.1964152455329895,-0.9782456755638124,0,0,0,-1,-1,126070.516262,unknown,2,2024-04-17T12:58:49.415+02:00,,0,0,0,0,0,0,0,,0.0,0,0.0,0.0,
28,2024-04-17T12:59:27.547+02:00,126108.6470255417,-0.0698089599609375,-0.207550048828125,-0.9922027587890624,126108.6170915417,-0.059382217053596,-0.0681497924605042,0.1986372677873865,0.0135743115097284,0.0078596677631139,0.0008844088297337,-0.003188282251358,0.0027841180562973,-0.0120057463645935,XArbitraryZVertical,0.0980478043564046,-0.0368273653224387,-0.0328998699825701,0.9939556967214284,-0.0667580217123031,-0.1973335742950439,-0.9780607223510742,0,0,0,-1,-1,126070.516262,unknown,2,2024-04-17T12:58:49.415+02:00,,0,0,0,0,0,0,0,,0.0,0,0.0,0.0,
29,2024-04-17T12:59:27.582+02:00,126108.6819475417,-0.065399169921875,-0.1907958984375,-0.98248291015625,126108.6769585417,-0.0590082791293019,-0.0676540523464216,0.1985768942944627,0.0084334332495927,0.0096472576260566,0.0133239198476076,0.0005695819854736,0.0064328163862228,-0.0031718611717224,XArbitraryZVertical,0.0980327774145323,-0.0365618712419504,-0.0326887950791826,0.9939740047048916,-0.0662739500403404,-0.197274386882782,-0.97810560464859,0,0,0,-1,-1,126070.516262,unknown,2,2024-04-17T12:58:49.415+02:00,,0,0,0,0,0,0,0,,0.0,0,0.0,0.0,
30,2024-04-17T12:59:27.617+02:00,126108.7168705417,-0.0634765625,-0.1959228515625,-0.984039306640625,126108.6769585417,-0.0590082791293019,-0.0676540523464216,0.1985768942944627,0.0084334332495927,0.0096472576260566,0.0133239198476076,0.0005695819854736,0.0064328163862228,-0.0031718611717224,XArbitraryZVertical,0.0980327774145323,-0.0365618712419504,-0.0326887950791826,0.9939740047048916,-0.0662739500403404,-0.197274386882782,-0.97810560464859,0,0,0,-1,-1,126070.516262,unknown,2,2024-04-17T12:58:49.415+02:00,,0,0,0,0,0,0,0,,0.0,0,0.0,0.0,
31,2024-04-17T12:59:27.652+02:00,126108.7517935417,-0.064422607421875,-0.1998443603515625,-0.9815216064453124,126108.7368265417,-0.0588671904726324,-0.0673714470712436,0.1993960350086325,-0.0027827357407659,0.0042880643159151,-0.0080780033022165,0.0042800679802894,-0.0055358260869979,-0.0072362422943115,XArbitraryZVertical,0.0984471440181539,-0.036425121928506,-0.0326173469111671,0.9939403980150688,-0.0659866333007812,-0.1980773657560349,-0.9779627323150636,0,0,0,-1,-1,126070.516262,unknown,2,2024-04-17T12:58:49.415+02:00,,0,0,0,0,0,0,0,,0.0,0,0.0,0.0,
32,2024-04-17T12:59:27.687+02:00,126108.7867165417,-0.0653533935546875,-0.18896484375,-0.98394775390625,126108.7368265417,-0.0588671904726324,-0.0673714470712436,0.1993960350086325,-0.0027827357407659,0.0042880643159151,-0.0080780033022165,0.0042800679802894,-0.0055358260869979,-0.0072362422943115,XArbitraryZVertical,0.0984471440181539,-0.036425121928506,-0.0326173469111671,0.9939403980150688,-0.0659866333007812,-0.1980773657560349,-0.9779627323150636,0,0,0,-1,-1,126070.516262,unknown,2,2024-04-17T12:58:49.415+02:00,,0,0,0,0,0,0,0,,0.0,0,0.0,0.0,
33,2024-04-17T12:59:27.722+02:00,126108.8216385417,-0.0673675537109375,-0.2097930908203125,-0.98248291015625,126108.7966945417,-0.0589729739569529,-0.0669769929458036,0.1988473365249441,0.0013812051620334,0.0063810795545578,-0.0148620633408427,-0.0012711659073829,0.0078270733356475,-0.0069341659545898,XArbitraryZVertical,0.0981789128768618,-0.0362271653981823,-0.0326421685519984,0.9939733488652682,-0.0656081289052963,-0.1975395083427429,-0.9780969619750975,0,0,0,-1,-1,126070.516262,unknown,2,2024-04-17T12:58:49.415+02:00,,0,0,0,0,0,0,0,,0.0,0,0.0,0.0,
34,2024-04-17T12:59:27.757+02:00,126108.8565615417,-0.068328857421875,-0.1943817138671875,-0.991851806640625,126108.7966945417,-0.0589729739569529,-0.0669769929458036,0.1988473365249441,0.0013812051620334,0.0063810795545578,-0.0148620633408427,-0.0012711659073829,0.0078270733356475,-0.0069341659545898,XArbitraryZVertical,0.0981789128768618,-0.0362271653981823,-0.0326421685519984,0.9939733488652682,-0.0656081289052963,-0.1975395083427429,-0.9780969619750975,0,0,0,-1,-1,126070.516262,unknown,2,2024-04-17T12:58:49.415+02:00,,0,0,0,0,0,0,0,,0.0,0,0.0,0.0,
35,2024-04-17T12:59:27.792+02:00,126108.8914845417,-0.0673370361328125,-0.199615478515625,-0.9930267333984376,126108.8565615417,-0.0598130207841513,-0.0665078610087672,0.198080251733017,-0.0058778617531061,0.0004879608750343,-0.0086969984695315,-0.0023608431220054,-0.0018513202667236,-0.0122762322425842,XArbitraryZVertical,0.097790129439151,-0.0360251069163827,-0.0330250835185388,0.9940063559115748,-0.0651593133807182,-0.196787491440773,-0.9782785773277284,0,0,0,-1,-1,126070.516262,unknown,2,2024-04-17T12:58:49.415+02:00,,0,0,0,0,0,0,0,,0.0,0,0.0,0.0,
36,2024-04-17T12:59:27.827+02:00,126108.9264075417,-0.06634521484375,-0.19464111328125,-0.9840850830078124,126108.9164295417,-0.0601394816502055,-0.0667201849985381,0.1979954195583279,-0.0049078054726123,-0.0060790702700614,-0.000567318405956,-0.0019231364130973,-0.0058560073375701,-0.0121971368789672,XArbitraryZVertical,0.0977385487511469,-0.0361454628749924,-0.0331964325906226,0.99400140628181,-0.0653681382536888,-0.196704313158989,-0.9782813787460328,0,0,0,-1,-1,126070.516262,unknown,2,2024-04-17T12:58:49.415+02:00,,0,0,0,0,0,0,0,,735044367.7897586,0,-0.2399998,99.66225,
37,2024-04-17T12:59:27.862+02:00,126108.9613295417,-0.0645751953125,-0.210479736328125,-0.9860382080078124,126108.9164295417,-0.0601394816502055,-0.0667201849985381,0.1979954195583279,-0.0049078054726123,-0.0060790702700614,-0.000567318405956,-0.0019231364130973,-0.0058560073375701,-0.0121971368789672,XArbitraryZVertical,0.0977385487511469,-0.0361454628749924,-0.0331964325906226,0.99400140628181,-0.0653681382536888,-0.196704313158989,-0.9782813787460328,0,0,0,-1,-1,126070.516262,unknown,2,2024-04-17T12:58:49.415+02:00,,0,0,0,0,0,0,0,,735044367.7897586,0,-0.2399998,99.66225,
38,2024-04-17T12:59:27.897+02:00,126108.9962525417,-0.0662841796875,-0.2014312744140625,-0.9871063232421876,126108.9762965417,-0.0604724326967501,-0.0667994014821706,0.1977975061160901,-0.0158839803189039,-0.0071068033576011,-0.0089629720896482,0.0023683756589889,-0.0102767646312713,-0.0080436468124389,XArbitraryZVertical,0.0976328254379175,-0.0361984545901497,-0.0333627883181292,0.9940043033687151,-0.0654482319951057,-0.1965102553367615,-0.978314995765686,0,0,0,-1,-1,126070.516262,unknown,2,2024-04-17T12:58:49.415+02:00,,0,0,0,0,0,0,0,,735044367.7897586,0,-0.2399998,99.66225,
39,2024-04-17T12:59:27.932+02:00,126109.0311755417,-0.063201904296875,-0.1925048828125,-0.990814208984375,126108.9762965417,-0.0604724326967501,-0.0667994014821706,0.1977975061160901,-0.0158839803189039,-0.0071068033576011,-0.0089629720896482,0.0023683756589889,-0.0102767646312713,-0.0080436468124389,XArbitraryZVertical,0.0976328254379175,-0.0361984545901497,-0.0333627883181292,0.9940043033687151,-0.0654482319951057,-0.1965102553367615,-0.978314995765686,0,0,0,-1,-1,126070.516262,unknown,2,2024-04-17T12:58:49.415+02:00,,0,0,0,0,0,0,0,,735044367.7897586,0,-0.2399998,99.66225,
40,2024-04-17T12:59:27.967+02:00,126109.0660985417,-0.0701751708984375,-0.205291748046875,-0.994964599609375,126109.0361645417,-0.0609913659309112,-0.0675234799103464,0.1978806858396421,0.0165471080690622,-0.0137607501819729,-0.0079806074500083,0.0029535666108131,0.0040870308876037,-0.0125631690025329,XArbitraryZVertical,0.097652596171307,-0.0365847699605252,-0.0336573092277124,0.9939783220967476,-0.0661554858088493,-0.1965918242931366,-0.978251039981842,0,0,0,-1,-1,126070.516262,unknown,2,2024-04-17T12:58:49.415+02:00,,0,0,0,0,0,0,0,,735044367.7897586,0,-0.2399998,99.66225,
41,2024-04-17T12:59:28.001+02:00,126109.1010205417,-0.0627899169921875,-0.19549560546875,-0.9809112548828124,126109.0960315417,-0.0613831271734685,-0.0671486006413094,0.198656840456401,0.0104244127869606,0.0151384286582469,6.404123269021511e-05,0.0013711228966712,0.0013079494237899,-0.0039018988609313,XArbitraryZVertical,0.0980375876396847,-0.0364281439747624,-0.033845487055198,0.9939397446806102,-0.0657785013318061,-0.1973527669906616,-0.9781232476234436,0,0,0,-1,-1,126070.516262,unknown,2,2024-04-17T12:58:49.415+02:00,,0,0,0,0,0,0,0,,735044367.7897586,0,-0.2399998,99.66225,
42,2024-04-17T12:59:28.045+02:00,126109.1359435417,-0.0657501220703125,-0.192718505859375,-0.983062744140625,126109.0960315417,-0.0613831271734685,-0.0671486006413094,0.198656840456401,0.0104244127869606,0.0151384286582469,6.404123269021511e-05,0.0013711228966712,0.0013079494237899,-0.0039018988609313,XArbitraryZVertical,0.0980375876396847,-0.0364281439747624,-0.033845487055198,0.9939397446806102,-0.0657785013318061,-0.1973527669906616,-0.9781232476234436,0,0,0,-1,-1,126070.516262,unknown,2,2024-04-17T12:58:49.415+02:00,,0,0,0,0,0,0,0,,735044367.7897586,0,-0.2399998,99.66225,
43,2024-04-17T12:59:28.071+02:00,126109.1708665417,-0.0654754638671875,-0.200286865234375,-0.984161376953125,126109.1558995417,-0.061957811169224,-0.0668648876755987,0.1989480877296589,0.0016573304310441,-0.0040390128269791,-0.0079553071409463,0.0006930455565452,-0.001336246728897,-0.0023537874221801,XArbitraryZVertical,0.098176723690506,-0.036319318819693,-0.0341215729593406,0.9939205806654547,-0.0654971450567245,-0.1976382732391357,-0.9780845046043396,0,0,0,-1,-1,126070.516262,unknown,2,2024-04-17T12:58:49.415+02:00,,0,0,0,0,0,0,0,,735044367.7897586,0,-0.2399998,99.66225,
44,2024-04-17T12:59:28.106+02:00,126109.2057895417,-0.0648193359375,-0.1902313232421875,-0.986480712890625,126109.1558995417,-0.061957811169224,-0.0668648876755987,0.1989480877296589,0.0016573304310441,-0.0040390128269791,-0.0079553071409463,0.0006930455565452,-0.001336246728897,-0.0023537874221801,XArbitraryZVertical,0.098176723690506,-0.036319318819693,-0.0341215729593406,0.9939205806654547,-0.0654971450567245,-0.1976382732391357,-0.9780845046043396,0,0,0,-1,-1,126070.516262,unknown,2,2024-04-17T12:58:49.415+02:00,,0,0,0,0,0,0,0,,735044367.7897586,0,-0.2399998,99.66225,
45,2024-04-17T12:59:28.141+02:00,126109.2407115417,-0.0642242431640625,-0.2043914794921875,-0.9825592041015624,126109.2157665417,-0.0619803834297376,-0.0669089489623336,0.19821832761201,-0.009839535690844,-4.427134990692139e-05,-0.0046721627004444,0.0003490447998046,0.0076071470975875,-0.0072789192199707,XArbitraryZVertical,0.0978128240300728,-0.0363322911755744,-0.0341239370214023,0.9939558495089258,-0.0655498728156089,-0.1969228535890579,-0.9782252311706544,0,0,0,-1,-1,126070.516262,unknown,2,2024-04-17T12:58:49.415+02:00,,0,0,0,0,0,0,0,,735044367.7897586,0,-0.2399998,99.66225,
46,2024-04-17T12:59:28.176+02:00,126109.2756345417,-0.0644989013671875,-0.187957763671875,-0.9881134033203124,126109.2157665417,-0.0619803834297376,-0.0669089489623336,0.19821832761201,-0.009839535690844,-4.427134990692139e-05,-0.0046721627004444,0.0003490447998046,0.0076071470975875,-0.0072789192199707,XArbitraryZVertical,0.0978128240300728,-0.0363322911755744,-0.0341239370214023,0.9939558495089258,-0.0655498728156089,-0.1969228535890579,-0.9782252311706544,0,0,0,-1,-1,126070.516262,unknown,2,2024-04-17T12:58:49.415+02:00,,0,0,0,0,0,0,0,,735044367.7897586,0,-0.2399998,99.66225,
47,2024-04-17T12:59:28.211+02:00,126109.3105575417,-0.067840576171875,-0.2022247314453125,-0.985870361328125,126109.2756345417,-0.0621102024797213,-0.0671705555064917,0.1974691658256437,-0.0053950306028127,-0.0100307259708643,-0.0061635337769985,0.0022170096635818,0.0054230391979217,-0.0092853903770446,XArbitraryZVertical,0.0974335881495395,-0.0364583236114967,-0.0341898826363572,0.9939862796402048,-0.065815657377243,-0.1961883157491684,-0.9783549904823304,0,0,0,-1,-1,126070.516262,unknown,2,2024-04-17T12:58:49.415+02:00,,0,0,0,0,0,0,0,,735044367.7897586,0,-0.2399998,99.66225,
48,2024-04-17T12:59:28.246+02:00,126109.3454805417,-0.0676727294921875,-0.1949462890625,-0.9949188232421876,126109.3355025417,-0.0620363989143141,-0.0673101578394483,0.1964969722417564,-0.0395626798272132,0.0028001554310321,0.0211914684623479,-0.0016466826200485,-0.0083019733428955,-0.0091658234596252,XArbitraryZVertical,0.0969492718528353,-0.0365107263311734,-0.0341452188318934,0.9940331746219074,-0.0659650415182113,-0.1952349245548248,-0.9785355925559998,0,0,0,-1,-1,126070.516262,unknown,2,2024-04-17T12:58:49.415+02:00,,0,0,0,0,0,0,0,,735044367.7897586,0,-0.2399998,99.66225,
49,2024-04-17T12:59:28.281+02:00,126109.3804025417,-0.055206298828125,-0.19287109375,-0.9883270263671876,126109.3355025417,-0.0620363989143141,-0.0673101578394483,0.1964969722417564,-0.0395626798272132,0.0028001554310321,0.0211914684623479,-0.0016466826200485,-0.0083019733428955,-0.0091658234596252,XArbitraryZVertical,0.0969492718528353,-0.0365107263311734,-0.0341452188318934,0.9940331746219074,-0.0659650415182113,-0.1952349245548248,-0.9785355925559998,0,0,0,-1,-1,126070.516262,unknown,2,2024-04-17T12:58:49.415+02:00,,0,0,0,0,0,0,0,,735044367.7897586,0,-0.2399998,99.66225,
50,2024-04-17T12:59:28.316+02:00,126109.4153255417,-0.0672607421875,-0.20758056640625,-0.9925689697265624,126109.3953695417,-0.0616171206752596,-0.0676474267457637,0.1950441337554915,0.0048500169068574,-0.0177307426929473,-0.0042982930317521,0.0073694437742233,-0.0028606057167053,-0.0080974698066711,XArbitraryZVertical,0.0962289349738997,-0.0366381708813284,-0.0339309267258523,0.9941058682634224,-0.0663141682744026,-0.19380983710289,-0.978795289993286,0,0,0,-1,-1,126070.516262,unknown,2,2024-04-17T12:58:49.415+02:00,,0,0,0,0,0,0,0,,735044367.7897586,0,-0.2399998,99.66225,
51,2024-04-17T12:59:28.351+02:00,126109.4502485417,-0.074493408203125,-0.192352294921875,-0.9955902099609376,126109.3953695417,-0.0616171206752596,-0.0676474267457637,0.1950441337554915,0.0048500169068574,-0.0177307426929473,-0.0042982930317521,0.0073694437742233,-0.0028606057167053,-0.0080974698066711,XArbitraryZVertical,0.0962289349738997,-0.0366381708813284,-0.0339309267258523,0.9941058682634224,-0.0663141682744026,-0.19380983710289,-0.978795289993286,0,0,0,-1,-1,126070.516262,unknown,2,2024-04-17T12:58:49.415+02:00,,0,0,0,0,0,0,0,,735044367.7897586,0,-0.2399998,99.66225,
52,2024-04-17T12:59:28.386+02:00,126109.4851715417,-0.062652587890625,-0.191070556640625,-0.9865875244140624,126109.4552375417,-0.0607654698290964,-0.0681740174583065,0.194790942679234,-0.0209866855293512,0.0071795713156461,0.0107297347858548,-0.0076605081558227,0.0012092292308807,-0.0167810916900634,XArbitraryZVertical,0.0961098290738161,-0.0368555326496942,-0.0335290311869321,0.9941229568636868,-0.066832922399044,-0.1935614347457886,-0.978809118270874,0,0,0,-1,-1,126070.516262,unknown,2,2024-04-17T12:58:49.415+02:00,,0,0,0,0,0,0,0,,735044367.7897586,0,-0.2399998,99.66225,
53,2024-04-17T12:59:28.421+02:00,126109.5200935417,-0.0621185302734375,-0.1929168701171875,-0.9842529296875,126109.5151045417,-0.0600420000940903,-0.0675453359938192,0.1949048434406255,0.015719486400485,0.0098094046115875,0.0017907584551721,0.0020986050367355,0.003380924463272,-0.0036234259605407,XArbitraryZVertical,0.0961901990840814,-0.0365097759928792,-0.033140947562554,0.9941410125053984,-0.0662160590291023,-0.1936731785535812,-0.9788289666175842,0,0,0,-1,-1,126070.516262,unknown,2,2024-04-17T12:58:49.415+02:00,,0,0,0,0,0,0,0,,735044367.7897586,0,-0.2399998,99.66225,
54,2024-04-17T12:59:28.455+02:00,126109.5550165417,-0.0644073486328125,-0.1937255859375,-0.98284912109375,126109.5151045417,-0.0600420000940903,-0.0675453359938192,0.1949048434406255,0.015719486400485,0.0098094046115875,0.0017907584551721,0.0020986050367355,0.003380924463272,-0.0036234259605407,XArbitraryZVertical,0.0961901990840814,-0.0365097759928792,-0.033140947562554,0.9941410125053984,-0.0662160590291023,-0.1936731785535812,-0.9788289666175842,0,0,0,-1,-1,126070.516262,unknown,2,2024-04-17T12:58:49.415+02:00,,0,0,0,0,0,0,0,,735044367.7897586,0,-0.2399998,99.66225,
55,2024-04-17T12:59:28.490+02:00,126109.5899395417,-0.073272705078125,-0.17657470703125,-0.9803924560546876,126109.5749725417,-0.0602689453228352,-0.0674131022284637,0.1950333482012867,-0.0088657066226005,0.0037858095020055,-0.0035588471218943,-0.005310945212841,-0.0006434023380279,-0.0024188160896301,XArbitraryZVertical,0.0962521497514194,-0.0364566796882865,-0.0332493643806274,0.9941332669968664,-0.0660849511623382,-0.1937992572784424,-0.9788128733634948,0,0,0,-1,-1,126070.516262,unknown,2,2024-04-17T12:58:49.415+02:00,,0,0,0,0,0,0,0,,735044367.7897586,0,-0.2399998,99.66225,
56,2024-04-17T12:59:28.531+02:00,126109.6248635,-0.0642852783203125,-0.19281005859375,-0.97576904296875,126109.5749725417,-0.0602689453228352,-0.0674131022284637,0.1950333482012867,-0.0088657066226005,0.0037858095020055,-0.0035588471218943,-0.005310945212841,-0.0006434023380279,-0.0024188160896301,XArbitraryZVertical,0.0962521497514194,-0.0364566796882865,-0.0332493643806274,0.9941332669968664,-0.0660849511623382,-0.1937992572784424,-0.9788128733634948,0,0,0,-1,-1,126070.516262,unknown,2,2024-04-17T12:58:49.415+02:00,,0,0,0,0,0,0,0,,735044367.7897586,0,-0.2399998,99.66225,
57,2024-04-17T12:59:28.560+02:00,126109.6597855,-0.069366455078125,-0.202972412109375,-0.9859161376953124,126109.6348415,-0.0603715417189686,-0.0671297945892936,0.1943070240116312,-0.0275263432413339,-0.0094674304127693,-0.0070470934733748,0.003896877169609,0.0012379884719848,-6.270408630371094e-05,XArbitraryZVertical,0.0958938841339722,-0.0363110751594763,-0.03327566727854,0.9941723459447942,-0.0658170655369758,-0.193086639046669,-0.9789717197418212,0,0,0,-1,-1,126070.516262,unknown,2,2024-04-17T12:58:49.415+02:00,,0,0,0,0,0,0,0,,735044367.7897586,0,-0.2399998,99.66225,
58,2024-04-17T12:59:28.595+02:00,126109.6947085,-0.0771026611328125,-0.1874237060546875,-0.9975128173828124,126109.6348415,-0.0603715417189686,-0.0671297945892936,0.1943070240116312,-0.0275263432413339,-0.0094674304127693,-0.0070470934733748,0.003896877169609,0.0012379884719848,-6.270408630371094e-05,XArbitraryZVertical,0.0958938841339722,-0.0363110751594763,-0.03327566727854,0.9941723459447942,-0.0658170655369758,-0.193086639046669,-0.9789717197418212,0,0,0,-1,-1,126070.516262,unknown,2,2024-04-17T12:58:49.415+02:00,,0,0,0,0,0,0,0,,735044367.7897586,0,-0.2399998,99.66225,
59,2024-04-17T12:59:28.630+02:00,126109.7296315,-0.0739898681640625,-0.203094482421875,-1.001968383789062,126109.6947085,-0.0607503683250523,-0.0689380253912404,0.1917255373448887,-0.0019374485127627,-0.0442772284150123,0.0059331152588129,-0.0060786977410316,0.0064711719751358,-0.0195562243461608,XArbitraryZVertical,0.0945731940123744,-0.0371933511248301,-0.0335101741028211,0.9942584078665316,-0.0676212757825851,-0.1905530989170074,-0.9793451428413392,0,0,0,-1,-1,126070.516262,unknown,2,2024-04-17T12:58:49.415+02:00,,0,0,0,0,0,0,0,,735044367.7897586,0,-0.2399998,99.66225,
60,2024-04-17T12:59:28.665+02:00,126109.7645545,-0.0759429931640625,-0.20086669921875,-0.995697021484375,126109.7545765,-0.0601069193248965,-0.0703905362739204,0.1918480358843835,-0.0135862920433282,-0.0054989401251077,0.0022710026241838,-0.01002898812294,0.0026241540908813,-0.025202453136444,XArbitraryZVertical,0.0946219420086801,-0.0378866343227323,-0.0332609509161792,0.9942358798944284,-0.0690420717000961,-0.1906733512878418,-0.9792225956916808,0,0,0,-1,-1,126070.516262,unknown,2,2024-04-17T12:58:49.415+02:00,,0,0,0,0,0,0,0,,735044367.7897586,0,-0.2399998,99.66225,
61,2024-04-17T12:59:28.700+02:00,126109.7994765,-0.069244384765625,-0.1861419677734375,-0.975982666015625,126109.7545765,-0.0601069193248965,-0.0703905362739204,0.1918480358843835,-0.0135862920433282,-0.0054989401251077,0.0022710026241838,-0.01002898812294,0.0026241540908813,-0.025202453136444,XArbitraryZVertical,0.0946219420086801,-0.0378866343227323,-0.0332609509161792,0.9942358798944284,-0.0690420717000961,-0.1906733512878418,-0.9792225956916808,0,0,0,-1,-1,126070.516262,unknown,2,2024-04-17T12:58:49.415+02:00,,0,0,0,0,0,0,0,,735044367.7897586,0,-0.2399998,99.66225,
62,2024-04-17T12:59:28.734+02:00,126109.8343995,-0.0742950439453125,-0.184356689453125,-0.973480224609375,126109.8144435,-0.0602146189695137,-0.0707043997021465,0.1912231108615246,0.0017520503606647,-0.0061173448339104,-0.0175448171794414,-0.0006037577986717,-0.0003392249345779,0.0050916075706481,XArbitraryZVertical,0.0943039326522421,-0.0380394486469448,-0.0333192438371996,0.9942584410468364,-0.0693578124046325,-0.1900598555803299,-0.9793195128440856,0,0,0,-1,-1,126070.516262,unknown,2,2024-04-17T12:58:49.415+02:00,,0,0,0,0,0,0,0,,735044367.7897586,0,-0.2399998,99.66225,
63,2024-04-17T12:59:28.769+02:00,126109.8693225,-0.076324462890625,-0.1802520751953125,-0.97265625,126109.8144435,-0.0602146189695137,-0.0707043997021465,0.1912231108615246,0.0017520503606647,-0.0061173448339104,-0.0175448171794414,-0.0006037577986717,-0.0003392249345779,0.0050916075706481,XArbitraryZVertical,0.0943039326522421,-0.0380394486469448,-0.0333192438371996,0.9942584410468364,-0.0693578124046325,-0.1900598555803299,-0.9793195128440856,0,0,0,-1,-1,126070.516262,unknown,2,2024-04-17T12:58:49.415+02:00,,0,0,0,0,0,0,0,,735044367.7897586,0,-0.2399998,99.66225,
64,2024-04-17T12:59:28.805+02:00,126109.9042455,-0.0794830322265625,-0.1584930419921875,-0.9889373779296876,126109.8743115,-0.0626949816741529,-0.0711398400591787,0.1900998245894546,-0.0456730350852012,-0.0091695357114076,-0.0379314683377742,-0.0065251141786575,0.0087049305438995,0.0068452954292297,XArbitraryZVertical,0.0936906426177617,-0.0383572250426114,-0.0345546041437244,0.9942619644005322,-0.0697993710637092,-0.1889569163322449,-0.9795015454292296,0,0,0,-1,-1,126070.516262,unknown,2,2024-04-17T12:58:49.415+02:00,,0,0,0,0,0,0,0,,735044367.7897586,0,-0.2399998,99.66225,
65,2024-04-17T12:59:28.839+02:00,126109.9391675,-0.083282470703125,-0.192291259765625,-0.9899444580078124,126109.9341785,-0.0646751363730651,-0.0709113729162904,0.1888943662076205,-0.0222203936427831,0.0134659837931394,-0.0300807747989893,-0.0112188979983329,-0.0017257630825042,-0.0078201293945312,XArbitraryZVertical,0.0930572747632398,-0.0383190233715985,-0.0355088665933946,0.994289339501541,-0.0695916786789894,-0.1877730488777161,-0.979744017124176,0,0,0,-1,-1,126070.516262,unknown,2,2024-04-17T12:58:49.415+02:00,,0,0,0,0,0,0,0,,735044367.7897586,0,-0.2399998,99.66225,
66,2024-04-17T12:59:28.874+02:00,126109.9740905,-0.080596923828125,-0.1808013916015625,-0.9901275634765624,126109.9341785,-0.0646751363730651,-0.0709113729162904,0.1888943662076205,-0.0222203936427831,0.0134659837931394,-0.0300807747989893,-0.0112188979983329,-0.0017257630825042,-0.0078201293945312,XArbitraryZVertical,0.0930572747632398,-0.0383190233715985,-0.0355088665933946,0.994289339501541,-0.0695916786789894,-0.1877730488777161,-0.979744017124176,0,0,0,-1,-1,126070.516262,unknown,2,2024-04-17T12:58:49.415+02:00,,0,0,0,0,0,0,0,,735044367.7897586,0,-0.2399998,99.66225,
67,2024-04-17T12:59:28.909+02:00,126110.0090135,-0.0756072998046875,-0.1981201171875,-0.98883056640625,126109.9940465,-0.0664713267897273,-0.0695101905741602,0.1844687472524371,-0.0454361885786056,0.0307204332202673,-0.0284395422786474,-0.0046764314174652,0.0074142962694168,-0.0073161125183105,XArbitraryZVertical,0.090847439560605,-0.0376400037879213,-0.0362669761536502,0.9944922093873022,-0.0682758539915084,-0.183424323797226,-0.9806599617004396,0,0,0,-1,-1,126070.516262,unknown,2,2024-04-17T12:58:49.415+02:00,,0,0,0,0,0,0,0,,735044367.7897586,0,-0.2399998,99.66225,
68,2024-04-17T12:59:28.944+02:00,126110.0439365,-0.0703125,-0.2143707275390625,-0.996124267578125,126109.9940465,-0.0664713267897273,-0.0695101905741602,0.1844687472524371,-0.0454361885786056,0.0307204332202673,-0.0284395422786474,-0.0046764314174652,0.0074142962694168,-0.0073161125183105,XArbitraryZVertical,0.090847439560605,-0.0376400037879213,-0.0362669761536502,0.9944922093873022,-0.0682758539915084,-0.183424323797226,-0.9806599617004396,0,0,0,-1,-1,126070.516262,unknown,2,2024-04-17T12:58:49.415+02:00,,0,0,0,0,0,0,0,,735044367.7897586,0,-0.2399998,99.66225,
69,2024-04-17T12:59:28.979+02:00,126110.0788585,-0.0437469482421875,-0.1972198486328125,-1.00604248046875,126110.0539145,-0.0685738056800201,-0.0670096897965636,0.1823513124448466,-0.0755036324262619,0.060290839523077,-0.0338633395731449,0.0027389898896217,-0.0348287671804428,-0.0159794688224792,XArbitraryZVertical,0.0898012273748735,-0.0364592644762136,-0.0371668680363326,0.9945980260752912,-0.0658493638038635,-0.1813423931598663,-0.9812129139900208,0,0,0,-1,-1,126070.516262,unknown,2,2024-04-17T12:58:49.415+02:00,,0,0,0,0,0,0,0,,735044367.7897586,0,-0.2399998,99.66225,
70,2024-04-17T12:59:29.014+02:00,126110.1137815,-0.04754638671875,-0.2071380615234375,-1.017181396484375,126110.0539145,-0.0685738056800201,-0.0670096897965636,0.1823513124448466,-0.0755036324262619,0.060290839523077,-0.0338633395731449,0.0027389898896217,-0.0348287671804428,-0.0159794688224792,XArbitraryZVertical,0.0898012273748735,-0.0364592644762136,-0.0371668680363326,0.9945980260752912,-0.0658493638038635,-0.1813423931598663,-0.9812129139900208,0,0,0,-1,-1,126070.516262,unknown,2,2024-04-17T12:58:49.415+02:00,,0,0,0,0,0,0,0,,735044367.7897586,0,-0.2399998,99.66225,
71,2024-04-17T12:59:29.049+02:00,126110.1487045,-0.0255584716796875,-0.18035888671875,-1.022048950195312,126110.1137815,-0.0707260505080879,-0.0636461273780169,0.1808299039766095,0.0028091478161513,0.0601201504468917,-0.0291782673448324,0.0150196924805641,-0.0207459479570388,-0.0362718105316162,XArbitraryZVertical,0.08906932758561,-0.0348586234802087,-0.0380644890702274,0.9946872896138046,-0.0625661015510559,-0.179846003651619,-0.9817030429840088,0,0,0,-1,-1,126070.516262,unknown,2,2024-04-17T12:58:49.415+02:00,,0,0,0,0,0,0,0,,735044367.7897586,0,-0.2399998,99.66225,
72,2024-04-17T12:59:29.084+02:00,126110.1836275,-0.0455169677734375,-0.19488525390625,-1.024261474609375,126110.1736495,-0.0718132176991043,-0.0604645266862544,0.1847529080939486,0.1131826192140579,0.0355753563344478,-0.0054562357254326,0.0205046311020851,0.0028413236141204,-0.0419622659683227,XArbitraryZVertical,0.0910630259443126,-0.0333893585283729,-0.0385160519500861,0.9945397591932252,-0.05939931422472,-0.1837036460638046,-0.9811853766441344,0,0,0,-1,-1,126070.516262,unknown,2,2024-04-17T12:58:49.415+02:00,,0,0,0,0,0,0,0,,735044367.7897586,0,-0.2399998,99.66225,
73,2024-04-17T12:59:29.119+02:00,126110.2185495,-0.0511322021484375,-0.16326904296875,-1.0345458984375,126110.1736495,-0.0718132176991043,-0.0604645266862544,0.1847529080939486,0.1131826192140579,0.0355753563344478,-0.0054562357254326,0.0205046311020851,0.0028413236141204,-0.0419622659683227,XArbitraryZVertical,0.0910630259443126,-0.0333893585283729,-0.0385160519500861,0.9945397591932252,-0.05939931422472,-0.1837036460638046,-0.9811853766441344,0,0,0,-1,-1,126070.516262,unknown,2,2024-04-17T12:58:49.415+02:00,,0,0,0,0,0,0,0,,735044367.7897586,0,-0.2399998,99.66225,
74,2024-04-17T12:59:29.154+02:00,126110.2534725,-0.0599822998046875,-0.1792755126953125,-1.005325317382812,126110.2335165,-0.0692943865966662,-0.0596194820247178,0.1928933485941387,0.1965032070875168,0.0033480804413557,0.0580067038536071,0.0019300058484077,0.0271486937999725,-0.050426185131073,XArbitraryZVertical,0.0951689965961241,-0.0329832809243905,-0.0373324013180461,0.9942139650559636,-0.0584791041910648,-0.1916993856430054,-0.9797099232673644,0,0,0,-1,-1,126070.516262,unknown,2,2024-04-17T12:58:49.415+02:00,,0,0,0,0,0,0,0,,735044367.7897586,0,-0.2399998,99.66225,
75,2024-04-17T12:59:29.189+02:00,126110.2883955,-0.0667877197265625,-0.1768341064453125,-0.97509765625,126110.2335165,-0.0692943865966662,-0.0596194820247178,0.1928933485941387,0.1965032070875168,0.0033480804413557,0.0580067038536071,0.0019300058484077,0.0271486937999725,-0.050426185131073,XArbitraryZVertical,0.0951689965961241,-0.0329832809243905,-0.0373324013180461,0.9942139650559636,-0.0584791041910648,-0.1916993856430054,-0.9797099232673644,0,0,0,-1,-1,126070.516262,unknown,2,2024-04-17T12:58:49.415+02:00,,0,0,0,0,0,0,0,,735044367.7897586,0,-0.2399998,99.66225,
76,2024-04-17T12:59:29.224+02:00,126110.3233185,-0.067535400390625,-0.191925048828125,-0.9517974853515624,126110.2933845,-0.0632148676412024,-0.0604855667742383,0.2049849320195477,0.2024354487657547,0.0108069311827421,0.1025062650442123,-0.0076046027243137,0.0267183929681778,0.0021759867668151,XArbitraryZVertical,0.101264674213228,-0.0332963044402103,-0.0345141714851187,0.9937029879915572,-0.0591831430792808,-0.2035524100065231,-0.9772736430168152,0,0,0,-1,-1,126070.516262,unknown,2,2024-04-17T12:58:49.415+02:00,,0,0,0,0,0,0,0,,735044367.7897586,0,-0.2399998,99.66225,
77,2024-04-17T12:59:29.258+02:00,126110.3582405,-0.05938720703125,-0.20904541015625,-0.9622039794921876,126110.3532515,-0.0564121324034431,-0.0607284403302729,0.2134713224743439,0.1298793852329254,0.0260430295020341,0.0922355502843856,-0.0041783303022384,0.0072334259748458,0.019948661327362,XArbitraryZVertical,0.1055903021373955,-0.0331778686796119,-0.0312619129190258,0.9933643820273194,-0.0593135170638561,-0.2118536978960037,-0.9754998087882996,0,0,0,-1,-1,126070.516262,unknown,2,2024-04-17T12:58:49.415+02:00,,0,0,0,0,0,0,0,,735044367.7897586,0,-0.2399998,99.66225,
78,2024-04-17T12:59:29.293+02:00,126110.3931635,-0.056121826171875,-0.2105560302734375,-0.9726409912109376,126110.3532515,-0.0564121324034431,-0.0607284403302729,0.2134713224743439,0.1298793852329254,0.0260430295020341,0.0922355502843856,-0.0041783303022384,0.0072334259748458,0.019948661327362,XArbitraryZVertical,0.1055903021373955,-0.0331778686796119,-0.0312619129190258,0.9933643820273194,-0.0593135170638561,-0.2118536978960037,-0.9754998087882996,0,0,0,-1,-1,126070.516262,unknown,2,2024-04-17T12:58:49.415+02:00,,0,0,0,0,0,0,0,,735044367.7897586,0,-0.2399998,99.66225,
79,2024-04-17T12:59:29.328+02:00,126110.4280865,-0.0603179931640625,-0.228363037109375,-0.96417236328125,126110.4131195,-0.0501051888006255,-0.0619618551776588,0.2192571501201426,0.1132248714566231,-0.0023792553693056,0.1111723035573959,0.0023190043866634,-0.0009858906269073,0.0017130374908447,XArbitraryZVertical,0.1085509984940159,-0.0335197326712594,-0.0282756330926176,0.9931232199550392,-0.0604397542774677,-0.217504620552063,-0.9741862416267396,0,0,0,-1,-1,126070.516262,unknown,2,2024-04-17T12:58:49.415+02:00,,0,0,0,0,0,0,0,,735044367.7897586,0,-0.2399998,99.66225,
80,2024-04-17T12:59:29.363+02:00,126110.4630095,-0.058502197265625,-0.220947265625,-0.970794677734375,126110.4131195,-0.0501051888006255,-0.0619618551776588,0.2192571501201426,0.1132248714566231,-0.0023792553693056,0.1111723035573959,0.0023190043866634,-0.0009858906269073,0.0017130374908447,XArbitraryZVertical,0.1085509984940159,-0.0335197326712594,-0.0282756330926176,0.9931232199550392,-0.0604397542774677,-0.217504620552063,-0.9741862416267396,0,0,0,-1,-1,126070.516262,unknown,2,2024-04-17T12:58:49.415+02:00,,0,0,0,0,0,0,0,,735044367.7897586,0,-0.2399998,99.66225,
81,2024-04-17T12:59:29.398+02:00,126110.4979315,-0.0637054443359375,-0.2432708740234375,-0.9848785400390624,126110.4729875,-0.0426091420995898,-0.0631235242487705,0.2228561839788068,0.0723249763250351,0.0135283190757036,0.1049572452902794,0.0015545561909675,-0.0006024837493896,0.0020601153373718,XArbitraryZVertical,0.1104489596643061,-0.0337213577359383,-0.0246685134330558,0.993003288352297,-0.061521615833044,-0.2210160791873932,-0.9733278155326844,0,0,0,-1,-1,126070.516262,unknown,2,2024-04-17T12:58:49.415+02:00,,0,0,0,0,0,0,0,,735044367.7897586,0,-0.2399998,99.66225,
82,2024-04-17T12:59:29.433+02:00,126110.5328545,-0.060394287109375,-0.2505950927734375,-0.9680633544921876,126110.4729875,-0.0426091420995898,-0.0631235242487705,0.2228561839788068,0.0723249763250351,0.0135283190757036,0.1049572452902794,0.0015545561909675,-0.0006024837493896,0.0020601153373718,XArbitraryZVertical,0.1104489596643061,-0.0337213577359383,-0.0246685134330558,0.993003288352297,-0.061521615833044,-0.2210160791873932,-0.9733278155326844,0,0,0,-1,-1,126070.516262,unknown,2,2024-04-17T12:58:49.415+02:00,,0,0,0,0,0,0,0,,735044367.7897586,0,-0.2399998,99.66225,
83,2024-04-17T12:59:29.468+02:00,126110.5677775,-0.0634918212890625,-0.2372283935546875,-0.96759033203125,126110.5328545,-0.0362070359412721,-0.0633532073149562,0.2262130162752353,0.0445364452898502,0.016650516539812,0.1149505600333214,0.0004032775759696,-0.026169016957283,0.0013458132743835,XArbitraryZVertical,0.112220720308323,-0.0335059030482775,-0.0215518462332468,0.99288442484288,-0.0616978518664836,-0.2242886424064636,-0.9725677371025084,0,0,0,-1,-1,126070.516262,unknown,2,2024-04-17T12:58:49.415+02:00,,0,0,0,0,0,0,0,,735044367.7897586,0,-0.2399998,99.66225,
84,2024-04-17T12:59:29.503+02:00,126110.6027005,-0.0575714111328125,-0.227264404296875,-0.9788818359375,126110.5927225,-0.0288416472644127,-0.0635195845653879,0.2288805920313766,0.0601104311645031,0.0278687737882137,0.0993749946355819,0.0022663958370685,-0.0078383982181549,0.0014368891716003,XArbitraryZVertical,0.113666285528098,-0.033189295261872,-0.0179444565806124,0.9928024049566436,-0.0618214644491672,-0.2268874496221542,-0.9719569087028505,0,0,0,-1,-1,126070.516262,unknown,2,2024-04-17T12:58:49.415+02:00,,0,0,0,0,0,0,0,,735044367.7897586,0,-0.2399998,99.66225,
85,2024-04-17T12:59:29.543+02:00,126110.63762225,-0.0538787841796875,-0.236236572265625,-0.9819793701171876,126110.5927225,-0.0288416472644127,-0.0635195845653879,0.2288805920313766,0.0601104311645031,0.0278687737882137,0.0993749946355819,0.0022663958370685,-0.0078383982181549,0.0014368891716003,XArbitraryZVertical,0.113666285528098,-0.033189295261872,-0.0179444565806124,0.9928024049566436,-0.0618214644491672,-0.2268874496221542,-0.9719569087028505,0,0,0,-1,-1,126070.516262,unknown,2,2024-04-17T12:58:49.415+02:00,,0,0,0,0,0,0,0,,735044367.7897586,0,-0.2399998,99.66225,
86,2024-04-17T12:59:29.574+02:00,126110.67254525,-0.0724029541015625,-0.235321044921875,-0.984039306640625,126110.65258925,-0.0238408580572804,-0.0638446141056177,0.2314014489418335,-0.0051713697612285,0.001096474006772,0.0821990519762039,0.0042698569595813,-0.008252665400505,-0.0159571170806884,XArbitraryZVertical,0.1149978248541514,-0.0330766321353352,-0.0155187276416592,0.9926936824483586,-0.0621006861329078,-0.2293418496847153,-0.9713628888130188,0,0,0,-1,-1,126070.516262,unknown,2,2024-04-17T12:58:49.415+02:00,,0,0,0,0,0,0,0,,735044367.7897586,0,-0.2399998,99.66225,
87,2024-04-17T12:59:29.608+02:00,126110.70746825,-0.07415771484375,-0.24456787109375,-0.9800872802734376,126110.65258925,-0.0238408580572804,-0.0638446141056177,0.2314014489418335,-0.0051713697612285,0.001096474006772,0.0821990519762039,0.0042698569595813,-0.008252665400505,-0.0159571170806884,XArbitraryZVertical,0.1149978248541514,-0.0330766321353352,-0.0155187276416592,0.9926936824483586,-0.0621006861329078,-0.2293418496847153,-0.9713628888130188,0,0,0,-1,-1,126070.516262,unknown,2,2024-04-17T12:58:49.415+02:00,,0,0,0,0,0,0,0,,735044367.7897586,0,-0.2399998,99.66225,
88,2024-04-17T12:59:29.643+02:00,126110.74239125,-0.0661773681640625,-0.2289276123046875,-0.968017578125,126110.71245725,-0.0177542388493139,-0.0635985502803752,0.2315682029776445,0.0127951139584183,0.0448947064578533,0.0869315192103385,-0.0122984945774078,-0.0150636285543441,-0.0087473392486572,XArbitraryZVertical,0.1151822730392333,-0.0326047972889548,-0.0124859743201775,0.992730642327178,-0.0618592351675033,-0.2295041531324387,-0.9713399410247804,0,0,0,-1,-1,126070.516262,unknown,2,2024-04-17T12:58:49.415+02:00,,0,0,0,0,0,0,0,,735044367.7897586,0,-0.2399998,99.66225,
89,2024-04-17T12:59:29.678+02:00,126110.77731425,-0.060394287109375,-0.2386016845703125,-0.956939697265625,126110.77232525,-0.0150675236737797,-0.0612395555593259,0.2325854639673004,-0.0096109472215175,0.0588240288197994,0.0099284658208489,-0.0009172372519969,-0.008931428194046,0.016491949558258,XArbitraryZVertical,0.1157440114391403,-0.0312810731598621,-0.0110314773376754,0.9927251629815697,-0.059553362429142,-0.2304941415786743,-0.9712496399879456,0,0,0,-1,-1,126070.516262,unknown,2,2024-04-17T12:58:49.415+02:00,,0,0,0,0,0,0,0,,735044367.7897586,0,-0.2399998,99.66225,
90,2024-04-17T12:59:29.713+02:00,126110.81223625,-0.0596160888671875,-0.2307586669921875,-0.9645538330078124,126110.77232525,-0.0150675236737797,-0.0612395555593259,0.2325854639673004,-0.0096109472215175,0.0588240288197994,0.0099284658208489,-0.0009172372519969,-0.008931428194046,0.016491949558258,XArbitraryZVertical,0.1157440114391403,-0.0312810731598621,-0.0110314773376754,0.9927251629815697,-0.059553362429142,-0.2304941415786743,-0.9712496399879456,0,0,0,-1,-1,126070.516262,unknown,2,2024-04-17T12:58:49.415+02:00,,0,0,0,0,0,0,0,,735044367.7897586,0,-0.2399998,99.66225,
91,2024-04-17T12:59:29.748+02:00,126110.84715925,-0.060577392578125,-0.2184600830078125,-0.982452392578125,126110.83219225,-0.0149042009279984,-0.0591069416316755,0.2321648449750049,0.0115679297596216,0.0276657678186893,0.0029814578592777,0.0024491809308528,0.0036139637231826,-0.003596007823944,XArbitraryZVertical,0.1155493800599619,-0.0302122185429811,-0.0108209922375658,0.9927832239054648,-0.0574876479804515,-0.2300848215818405,-0.9714711308479308,0,0,0,-1,-1,126070.516262,unknown,2,2024-04-17T12:58:49.415+02:00,,0,0,0,0,0,0,0,,735044367.7897586,0,-0.2399998,99.66225,
92,2024-04-17T12:59:29.782+02:00,126110.88208225,-0.0669708251953125,-0.221282958984375,-0.990020751953125,126110.83219225,-0.0149042009279984,-0.0591069416316755,0.2321648449750049,0.0115679297596216,0.0276657678186893,0.0029814578592777,0.0024491809308528,0.0036139637231826,-0.003596007823944,XArbitraryZVertical,0.1155493800599619,-0.0302122185429811,-0.0108209922375658,0.9927832239054648,-0.0574876479804515,-0.2300848215818405,-0.9714711308479308,0,0,0,-1,-1,126070.516262,unknown,2,2024-04-17T12:58:49.415+02:00,,0,0,0,0,0,0,0,,735044367.7897586,0,-0.2399998,99.66225,
93,2024-04-17T12:59:29.817+02:00,126110.91700525,-0.06475830078125,-0.2269134521484375,-0.989959716796875,126110.89206025,-0.0154925802385333,-0.0582724790901422,0.2332830584007596,-0.001401798101142,0.0160200875252485,-0.0171290226280689,-0.0094238780438899,0.0079368948936462,-0.0189578533172607,XArbitraryZVertical,0.1161002009742899,-0.0298343978977876,-0.0110805248470812,0.992727528884492,-0.0566619522869586,-0.2311728894710541,-0.9712613224983216,0,0,0,-1,-1,126070.516262,unknown,2,2024-04-17T12:58:49.415+02:00,,0,0,0,0,0,0,0,,735044367.7897586,0,-0.2399998,99.66225,
94,2024-04-17T12:59:29.853+02:00,126110.95192725,-0.057891845703125,-0.233673095703125,-0.9935302734375,126110.89206025,-0.0154925802385333,-0.0582724790901422,0.2332830584007596,-0.001401798101142,0.0160200875252485,-0.0171290226280689,-0.0094238780438899,0.0079368948936462,-0.0189578533172607,XArbitraryZVertical,0.1161002009742899,-0.0298343978977876,-0.0110805248470812,0.992727528884492,-0.0566619522869586,-0.2311728894710541,-0.9712613224983216,0,0,0,-1,-1,126070.516262,unknown,2,2024-04-17T12:58:49.415+02:00,,0,0,0,0,0,0,0,,735044367.7897586,0,-0.2399998,99.66225,
95,2024-04-17T12:59:29.887+02:00,126110.98685025,-0.0542449951171875,-0.2411956787109375,-0.9918060302734376,126110.95192725,-0.0158912312778212,-0.0572005759730955,0.2332088438796565,0.0290168710052967,0.0137017499655485,-0.0031371545046567,-0.0026973001658916,0.001456007361412,-0.0230613946914672,XArbitraryZVertical,0.1160634299430514,-0.0293253101913116,-0.0112151568839561,0.9927455707855416,-0.0556218028068542,-0.2311006933450699,-0.9713386297225952,0,0,0,-1,-1,126070.516262,unknown,2,2024-04-17T12:58:49.415+02:00,,0,0,0,0,0,0,0,,735044367.7897586,0,-0.2399998,99.66225,
96,2024-04-17T12:59:29.922+02:00,126111.02177325,-0.05126953125,-0.241546630859375,-0.9776153564453124,126111.01179525,-0.0151765795088133,-0.0572491580407949,0.2348456492999927,0.0354452989995479,-0.0059064980596303,0.0068605039268732,0.0054153241217136,-0.0085484981536865,-0.0133265256881713,XArbitraryZVertical,0.1168861124806352,-0.0293113827009944,-0.0108857804753041,0.992653083373968,-0.0556472763419151,-0.2326928675174713,-0.9709569811820984,0,0,0,-1,-1,126070.516262,unknown,2,2024-04-17T12:58:49.415+02:00,,0,0,0,0,0,0,0,,735044367.7897586,0,-0.2399998,99.66225,
97,2024-04-17T12:59:29.957+02:00,126111.05669625,-0.052825927734375,-0.22479248046875,-0.9709930419921876,126111.01179525,-0.0151765795088133,-0.0572491580407949,0.2348456492999927,0.0354452989995479,-0.0059064980596303,0.0068605039268732,0.0054153241217136,-0.0085484981536865,-0.0133265256881713,XArbitraryZVertical,0.1168861124806352,-0.0293113827009944,-0.0108857804753041,0.992653083373968,-0.0556472763419151,-0.2326928675174713,-0.9709569811820984,0,0,0,-1,-1,126070.516262,unknown,2,2024-04-17T12:58:49.415+02:00,,0,0,0,0,0,0,0,,735044367.7897586,0,-0.2399998,99.66225,
98,2024-04-17T12:59:29.992+02:00,126111.09161825,-0.0578460693359375,-0.234375,-0.96990966796875,126111.07166225,-0.0159568232702154,-0.0577041591120492,0.236540795670742,0.0361491702497005,-0.0227995384484529,-0.0316668003797531,0.0050408169627189,0.0085264146327972,-0.0024250745773315,XArbitraryZVertical,0.1177134475906743,-0.0295866471538318,-0.0113231107589512,0.9925422007134044,-0.0560662262141704,-0.2343411594629288,-0.9705363512039183,0,0,0,-1,-1,126070.516262,unknown,2,2024-04-17T12:58:49.415+02:00,,0,0,0,0,0,0,0,,735044367.7897586,0,-0.2399998,99.66225,
99,2024-04-17T12:59:30.031+02:00,126111.12654125,-0.06353759765625,-0.23846435546875,-0.9767608642578124,126111.07166225,-0.0159568232702154,-0.0577041591120492,0.236540795670742,0.0361491702497005,-0.0227995384484529,-0.0316668003797531,0.0050408169627189,0.0085264146327972,-0.0024250745773315,XArbitraryZVertical,0.1177134475906743,-0.0295866471538318,-0.0113231107589512,0.9925422007134044,-0.0560662262141704,-0.2343411594629288,-0.9705363512039183,0,0,0,-1,-1,126070.516262,unknown,2,2024-04-17T12:58:49.415+02:00,,0,0,0,0,0,0,0,,735044367.7897586,0,-0.2399998,99.66225,
100,2024-04-17T12:59:30.062+02:00,126111.16146425,-0.0632781982421875,-0.22686767578125,-0.972259521484375,126111.13153025,-0.0187554075914534,-0.0584369122129685,0.2381582849177487,-0.0129836639389395,-0.0284995771944522,-0.0539168640971183,-0.0067824497818946,-0.0025509744882583,-0.0066455602645874,XArbitraryZVertical,0.1184699684557753,-0.030119699181185,-0.0127776287422184,0.9924185129106324,-0.0567551627755165,-0.2359132915735245,-0.97011536359787,0,0,0,-1,-1,126070.516262,unknown,2,2024-04-17T12:58:49.415+02:00,,0,0,0,0,0,0,0,,735044367.7897586,0,-0.2399998,99.66225,
101,2024-04-17T12:59:30.097+02:00,126111.19638725,-0.059051513671875,-0.2418365478515625,-0.974884033203125,126111.19139825,-0.0215218013501597,-0.0591792444831675,0.238870655946291,0.0196529757231473,-0.0399353243410587,-0.0502323806285858,0.0007636658847332,-0.0003023594617843,-0.0096787810325622,XArbitraryZVertical,0.1187764332117546,-0.0306544326215439,-0.0142042893562144,0.9923460617263552,-0.0574653409421443,-0.2366054952144623,-0.969904899597168,0,0,0,-1,-1,126070.516262,unknown,2,2024-04-17T12:58:49.415+02:00,,0,0,0,0,0,0,0,,735044367.7897586,0,-0.2399998,99.66225,
102,2024-04-17T12:59:30.132+02:00,126111.23130925,-0.053070068359375,-0.240478515625,-0.97967529296875,126111.19139825,-0.0215218013501597,-0.0591792444831675,0.238870655946291,0.0196529757231473,-0.0399353243410587,-0.0502323806285858,0.0007636658847332,-0.0003023594617843,-0.0096787810325622,XArbitraryZVertical,0.1187764332117546,-0.0306544326215439,-0.0142042893562144,0.9923460617263552,-0.0574653409421443,-0.2366054952144623,-0.969904899597168,0,0,0,-1,-1,126070.516262,unknown,2,2024-04-17T12:58:49.415+02:00,,0,0,0,0,0,0,0,,735044367.7897586,0,-0.2399998,99.66225,
