,loggingTime(txt),accelerometerTimestamp_sinceReboot(s),accelerometerAccelerationX(G),accelerometerAccelerationY(G),accelerometerAccelerationZ(G),motionTimestamp_sinceReboot(s),motionYaw(rad),motionRoll(rad),motionPitch(rad),motionRotationRateX(rad/s),motionRotationRateY(rad/s),motionRotationRateZ(rad/s),motionUserAccelerationX(G),motionUserAccelerationY(G),motionUserAccelerationZ(G),motionAttitudeReferenceFrame(txt),motionQuaternionX(R),motionQuaternionY(R),motionQuaternionZ(R),motionQuaternionW(R),motionGravityX(G),motionGravityY(G),motionGravityZ(G),motionMagneticFieldX(µT),motionMagneticFieldY(µT),motionMagneticFieldZ(µT),motionHeading(°),motionMagneticFieldCalibrationAccuracy(Z),activityTimestamp_sinceReboot(s),activity(txt),activityActivityConfidence(Z),activityActivityStartDate(txt),pedometerStartDate(txt),pedometerNumberofSteps(N),pedometerAverageActivePace(s/m),pedometerCurrentPace(s/m),pedometerCurrentCadence(steps/s),pedometerDistance(m),pedometerFloorAscended(N),pedometerFloorDescended(N),pedometerEndDate(txt),altimeterTimestamp_sinceReboot(s),altimeterReset(bool),altimeterRelativeAltitude(m),altimeterPressure(kPa),label
162,2024-04-17T12:59:32.228+02:00,126113.3266756667,-2.011566162109375,1.4576416015625,-2.157424926757812,126113.2867636667,0.0298548722510881,0.9148742969253572,-0.5004061382849498,-3.828094959259033,-6.169120311737061,0.6841824650764465,-0.2024128437042236,0.4577792584896088,1.522857546806335,XArbitraryZVertical,-0.228506643237183,0.4245345559603706,-0.0963654939308268,0.8707864002143156,0.6953175067901611,0.4797819256782532,-0.5351102352142334,0,0,0,-1,-1,126070.516262,unknown,2,2024-04-17T12:58:49.415+02:00,,0,0,0,0,0,0,0,,735044370.3390403,0,-0.6000004,99.66582,
163,2024-04-17T12:59:32.262+02:00,126113.3615986667,0.6381988525390625,-4.302719116210938,0.016510009765625,126113.3466316667,-0.0037663608786474,0.6515320961966349,-0.4457919291668943,6.402991771697998,-0.3761500716209412,2.297607898712158,-2.34226131439209,3.376444816589355,-8.16603946685791,XArbitraryZVertical,-0.2088405233385108,0.3125112495276431,-0.0724850800237962,0.9238334996678514,0.5471410751342773,0.4311725497245789,-0.7174447178840637,0,0,0,-1,-1,126070.516262,unknown,2,2024-04-17T12:58:49.415+02:00,,0,0,0,0,0,0,0,,735044370.3390403,0,-0.6000004,99.66582,
164,2024-04-17T12:59:32.297+02:00,126113.3965206667,-0.1449127197265625,0.981964111328125,-0.4662628173828125,126113.3466316667,-0.0037663608786474,0.6515320961966349,-0.4457919291668943,6.402991771697998,-0.3761500716209412,2.297607898712158,-2.34226131439209,3.376444816589355,-8.16603946685791,XArbitraryZVertical,-0.2088405233385108,0.3125112495276431,-0.0724850800237962,0.9238334996678514,0.5471410751342773,0.4311725497245789,-0.7174447178840637,0,0,0,-1,-1,126070.516262,unknown,2,2024-04-17T12:58:49.415+02:00,,0,0,0,0,0,0,0,,735044370.3390403,0,-0.6000004,99.66582,
165,2024-04-17T12:59:32.332+02:00,126113.4314436667,0.210540771484375,0.49603271484375,-0.865570068359375,126113.4064986667,0.0799813474138484,0.7355604253001845,-0.5953530549411783,-0.4111810624599457,0.8831062316894531,-1.948882460594177,-0.8489684462547302,0.5608726143836975,-0.0964695811271667,XArbitraryZVertical,-0.2872097094842784,0.3325155839061096,-0.0697043783644536,0.8955921411179676,0.555557131767273,0.560801088809967,-0.6138879656791687,0,0,0,-1,-1,126070.516262,unknown,2,2024-04-17T12:58:49.415+02:00,,0,0,0,0,0,0,0,,735044370.3390403,0,-0.6000004,99.66582,
166,2024-04-17T12:59:32.367+02:00,126113.4663666667,0.288330078125,0.3459320068359375,-0.5523681640625,126113.4064986667,0.0799813474138484,0.7355604253001845,-0.5953530549411783,-0.4111810624599457,0.8831062316894531,-1.948882460594177,-0.8489684462547302,0.5608726143836975,-0.0964695811271667,XArbitraryZVertical,-0.2872097094842784,0.3325155839061096,-0.0697043783644536,0.8955921411179676,0.555557131767273,0.560801088809967,-0.6138879656791687,0,0,0,-1,-1,126070.516262,unknown,2,2024-04-17T12:58:49.415+02:00,,0,0,0,0,0,0,0,,735044370.3390403,0,-0.6000004,99.66582,
167,2024-04-17T12:59:32.401+02:00,126113.5012896667,0.2390289306640625,0.594696044921875,-0.4526824951171875,126113.4663666667,-0.1772779174034453,0.6953613426192241,-0.5292316378112695,1.459042310714722,1.757054328918457,-2.156675338745117,-0.221504807472229,-0.2909724116325378,0.0826567411422729,XArbitraryZVertical,-0.2158125696710121,0.3493346009745291,-0.1690904183211786,0.8959903880396809,0.5530171990394592,0.5048702359199524,-0.6627805233001709,0,0,0,-1,-1,126070.516262,unknown,2,2024-04-17T12:58:49.415+02:00,,0,0,0,0,0,0,0,,735044370.3390403,0,-0.6000004,99.66582,
168,2024-04-17T12:59:32.436+02:00,126113.5362116667,0.5061492919921875,0.71343994140625,-0.1271514892578125,126113.5262346667,-0.3290867121295924,0.6998261426671581,-0.588976036017374,-0.0899698361754417,0.5914046168327332,-2.516347646713257,-0.1337836980819702,0.0617998242378234,0.3916822671890259,XArbitraryZVertical,-0.2152422116909053,0.3682896785616887,-0.2454100794154012,0.8705213456742023,0.5355628132820129,0.5555098652839661,-0.6360670328140259,0,0,0,-1,-1,126070.516262,unknown,2,2024-04-17T12:58:49.415+02:00,,0,0,0,0,0,0,0,,735044370.3390403,0,-0.6000004,99.66582,
169,2024-04-17T12:59:32.472+02:00,126113.5711346667,0.4089813232421875,0.64935302734375,-0.04071044921875,126113.5262346667,-0.3290867121295924,0.6998261426671581,-0.588976036017374,-0.0899698361754417,0.5914046168327332,-2.516347646713257,-0.1337836980819702,0.0617998242378234,0.3916822671890259,XArbitraryZVertical,-0.2152422116909053,0.3682896785616887,-0.2454100794154012,0.8705213456742023,0.5355628132820129,0.5555098652839661,-0.6360670328140259,0,0,0,-1,-1,126070.516262,unknown,2,2024-04-17T12:58:49.415+02:00,,0,0,0,0,0,0,0,,735044370.3390403,0,-0.6000004,99.66582,
170,2024-04-17T12:59:32.507+02:00,126113.6060576667,0.255157470703125,0.79449462890625,-0.0957489013671875,126113.5861016667,-0.4743740917401829,0.6021037813639649,-0.7020988637769352,0.3350483179092407,-0.8043782114982605,-2.802100658416748,-0.07411590218544,0.0477058291435241,0.6636650562286377,XArbitraryZVertical,-0.2537975165323985,0.3478129629018618,-0.3098309756904117,0.8477133922152568,0.4324227571487427,0.6458215713500977,-0.6292259097099304,0,0,0,-1,-1,126070.516262,unknown,2,2024-04-17T12:58:49.415+02:00,,0,0,0,0,0,0,0,,735044370.3390403,0,-0.6000004,99.66582,
171,2024-04-17T12:59:32.541+02:00,126113.640978875,0.29132080078125,0.4557647705078125,-0.2841949462890625,126113.5861016667,-0.4743740917401829,0.6021037813639649,-0.7020988637769352,0.3350483179092407,-0.8043782114982605,-2.802100658416748,-0.07411590218544,0.0477058291435241,0.6636650562286377,XArbitraryZVertical,-0.2537975165323985,0.3478129629018618,-0.3098309756904117,0.8477133922152568,0.4324227571487427,0.6458215713500977,-0.6292259097099304,0,0,0,-1,-1,126070.516262,unknown,2,2024-04-17T12:58:49.415+02:00,,0,0,0,0,0,0,0,,735044370.3390403,0,-0.6000004,99.66582,
172,2024-04-17T12:59:32.576+02:00,126113.675901875,0.2742156982421875,0.2970733642578125,-0.2644500732421875,126113.645967875,-0.7120131318609279,0.3683243911839366,-0.706563609783992,1.250172853469849,-1.966588020324707,-2.630098581314087,0.0174655616283416,-0.1934590339660645,0.4253907799720764,XArbitraryZVertical,-0.2589180107056514,0.2795865257227364,-0.3808635071548143,0.8424583702664642,0.2738551795482635,0.6492239236831665,-0.7095856666564941,0,0,0,-1,-1,126070.516262,unknown,2,2024-04-17T12:58:49.415+02:00,,0,0,0,0,0,0,0,,735044370.3390403,0,-0.6000004,99.66582,
173,2024-04-17T12:59:32.611+02:00,126113.710823875,0.1268310546875,0.415252685546875,-0.4127960205078125,126113.705834875,-0.934947203925633,0.0738739023162679,-0.749236320750118,-0.8981231451034546,-3.196568012237549,-3.318667888641357,0.1407363712787628,-0.3301886320114136,0.3999815583229065,XArbitraryZVertical,-0.3109478938241074,0.1954618186822901,-0.4311568003991799,0.8241419401712073,0.0540419667959213,0.6810798048973083,-0.7302121520042419,0,0,0,-1,-1,126070.516262,unknown,2,2024-04-17T12:58:49.415+02:00,,0,0,0,0,0,0,0,,735044370.3390403,0,-0.6000004,99.66582,
174,2024-04-17T12:59:32.646+02:00,126113.745746875,-0.11273193359375,0.887298583984375,-0.6546173095703125,126113.705834875,-0.934947203925633,0.0738739023162679,-0.749236320750118,-0.8981231451034546,-3.196568012237549,-3.318667888641357,0.1407363712787628,-0.3301886320114136,0.3999815583229065,XArbitraryZVertical,-0.3109478938241074,0.1954618186822901,-0.4311568003991799,0.8241419401712073,0.0540419667959213,0.6810798048973083,-0.7302121520042419,0,0,0,-1,-1,126070.516262,unknown,2,2024-04-17T12:58:49.415+02:00,,0,0,0,0,0,0,0,,735044370.3390403,0,-0.6000004,99.66582,
175,2024-04-17T12:59:32.681+02:00,126113.780669875,-0.1424407958984375,0.4871673583984375,-0.354034423828125,126113.765702875,-1.222250303245659,-0.3431517412893464,-0.7255617209949552,0.2706164717674255,-3.692507982254028,-3.623263835906982,0.0885194540023803,0.1476625800132751,0.1889616250991821,XArbitraryZVertical,-0.3779662958755362,0.0699023887944683,-0.4789435975588445,0.7892200828981458,-0.2517123222351074,0.6635558009147644,-0.7045102715492249,0,0,0,-1,-1,126070.516262,unknown,2,2024-04-17T12:58:49.415+02:00,,0,0,0,0,0,0,0,,735044370.3390403,0,-0.6000004,99.66582,
176,2024-04-17T12:59:32.716+02:00,126113.815592875,-0.5540618896484375,1.008071899414062,-0.6425018310546875,126113.765702875,-1.222250303245659,-0.3431517412893464,-0.7255617209949552,0.2706164717674255,-3.692507982254028,-3.623263835906982,0.0885194540023803,0.1476625800132751,0.1889616250991821,XArbitraryZVertical,-0.3779662958755362,0.0699023887944683,-0.4789435975588445,0.7892200828981458,-0.2517123222351074,0.6635558009147644,-0.7045102715492249,0,0,0,-1,-1,126070.516262,unknown,2,2024-04-17T12:58:49.415+02:00,,0,0,0,0,0,0,0,,735044370.3390403,0,-0.6000004,99.66582,
177,2024-04-17T12:59:32.751+02:00,126113.850514875,-0.9510040283203124,1.02337646484375,-0.590301513671875,126113.825570875,-1.458837852006367,-0.7353825575290377,-0.6396514825940647,-0.1849537044763565,-4.130490779876709,-3.294918775558472,-0.1264153718948364,0.5015644431114197,-0.0506314039230346,XArbitraryZVertical,-0.4461483321231064,-0.0588874212068278,-0.5060959039315559,0.7357656398419472,-0.5382423400878906,0.5969158411026001,-0.5949679017066956,0,0,0,-1,-1,126070.516262,unknown,2,2024-04-17T12:58:49.415+02:00,,0,0,0,0,0,0,0,,735044370.3390403,0,-0.6000004,99.66582,
178,2024-04-17T12:59:32.786+02:00,126113.885437875,-1.112533569335938,1.146575927734375,-0.8420257568359375,126113.825570875,-1.458837852006367,-0.7353825575290377,-0.6396514825940647,-0.1849537044763565,-4.130490779876709,-3.294918775558472,-0.1264153718948364,0.5015644431114197,-0.0506314039230346,XArbitraryZVertical,-0.4461483321231064,-0.0588874212068278,-0.5060959039315559,0.7357656398419472,-0.5382423400878906,0.5969158411026001,-0.5949679017066956,0,0,0,-1,-1,126070.516262,unknown,2,2024-04-17T12:58:49.415+02:00,,0,0,0,0,0,0,0,,735044370.3390403,0,-0.6000004,99.66582,
179,2024-04-17T12:59:32.821+02:00,126113.920360875,-1.19000244140625,1.222076416015625,-0.9085235595703124,126113.885437875,-1.563473826811174,-0.983609704497452,-0.5157731773793544,-0.0566159635782241,-2.597720623016357,-1.892457485198975,-0.3291258215904236,0.512468695640564,-0.3168175220489502,XArbitraryZVertical,-0.4812283842395181,-0.1656639087825471,-0.5150090350352122,0.6897394602455676,-0.7242038249969482,0.4932076036930084,-0.4819494187831879,0,0,0,-1,-1,126070.516262,unknown,2,2024-04-17T12:58:49.415+02:00,,0,0,0,0,0,0,0,,735044370.3390403,0,-0.6000004,99.66582,
180,2024-04-17T12:59:32.855+02:00,126113.955283875,-0.8337860107421875,0.662994384765625,-0.8809967041015625,126113.945305875,-1.520902005723172,-1.03753685485991,-0.4205040832336433,1.758914947509766,-0.0808047950267791,-0.2328161895275116,-0.1659384369850159,0.3762032091617584,-0.4732131361961365,XArbitraryZVertical,-0.4655292079633587,-0.2263926479303029,-0.5104097883997359,0.6866666045590132,-0.786133885383606,0.4082206785678864,-0.4640578627586365,0,0,0,-1,-1,126070.516262,unknown,2,2024-04-17T12:58:49.415+02:00,,0,0,0,0,0,0,0,,735044370.3390403,0,-0.6000004,99.66582,
181,2024-04-17T12:59:32.890+02:00,126113.990205875,-0.659820556640625,0.600341796875,-0.8224945068359375,126113.945305875,-1.520902005723172,-1.03753685485991,-0.4205040832336433,1.758914947509766,-0.0808047950267791,-0.2328161895275116,-0.1659384369850159,0.3762032091617584,-0.4732131361961365,XArbitraryZVertical,-0.4655292079633587,-0.2263926479303029,-0.5104097883997359,0.6866666045590132,-0.786133885383606,0.4082206785678864,-0.4640578627586365,0,0,0,-1,-1,126070.516262,unknown,2,2024-04-17T12:58:49.415+02:00,,0,0,0,0,0,0,0,,735044370.3390403,0,-0.6000004,99.66582,
182,2024-04-17T12:59:32.925+02:00,126114.025128875,-0.7202911376953125,0.38433837890625,-0.8885955810546875,126114.005172875,-1.444199440526242,-0.989146647332888,-0.3803886738734081,1.400736689567566,0.4131758511066437,-0.0821023881435394,0.115050196647644,0.1482193768024445,-0.3569943308830261,XArbitraryZVertical,-0.4329391848528271,-0.2397867360660441,-0.5039311803490987,0.7078978253630652,-0.7758321166038513,0.3712813854217529,-0.5101319551467896,0,0,0,-1,-1,126113.940316875,walking,2,2024-04-17T12:59:32.839+02:00,,0,0,0,0,0,0,0,,735044372.9045589,0,-0.8400002,99.66835,
183,2024-04-17T12:59:32.960+02:00,126114.060051875,-0.682647705078125,0.1992034912109375,-0.731719970703125,126114.005172875,-1.444199440526242,-0.989146647332888,-0.3803886738734081,1.400736689567566,0.4131758511066437,-0.0821023881435394,0.115050196647644,0.1482193768024445,-0.3569943308830261,XArbitraryZVertical,-0.4329391848528271,-0.2397867360660441,-0.5039311803490987,0.7078978253630652,-0.7758321166038513,0.3712813854217529,-0.5101319551467896,0,0,0,-1,-1,126113.940316875,walking,2,2024-04-17T12:59:32.839+02:00,,0,0,0,0,0,0,0,,735044372.9045589,0,-0.8400002,99.66835,
184,2024-04-17T12:59:32.995+02:00,126114.094974875,-0.809234619140625,0.1971435546875,-0.572052001953125,126114.065040875,-1.379195366374758,-0.9434138521076292,-0.3275725024962099,1.047535419464111,0.2401118278503418,-0.1926975399255753,0.083871304988861,-0.1225420534610748,-0.1759065985679626,XArbitraryZVertical,-0.3972964889269189,-0.2534736335704511,-0.5019990592731055,0.7251921773009653,-0.7665191292762756,0.3217455744743347,-0.5558132529258728,0,0,0,-1,-1,126113.940316875,walking,2,2024-04-17T12:59:32.839+02:00,,0,0,0,0,0,0,0,,735044372.9045589,0,-0.8400002,99.66835,
185,2024-04-17T12:59:33.030+02:00,126114.129896875,-0.915008544921875,-0.0106048583984375,-0.4929046630859375,126114.124908875,-1.349329022930513,-0.9305072199912195,-0.2789430795053677,0.8462022542953491,-0.103992335498333,-0.5273781418800354,-0.1335842609405518,-0.2248178422451019,0.0274600982666015,XArbitraryZVertical,-0.3745445096776185,-0.2693490712197553,-0.5041140961217513,0.7300935512808595,-0.7709263563156128,0.2753397226333618,-0.574334979057312,0,0,0,-1,-1,126113.940316875,walking,2,2024-04-17T12:59:32.839+02:00,,0,0,0,0,0,0,0,,735044372.9045589,0,-0.8400002,99.66835,
186,2024-04-17T12:59:33.065+02:00,126114.164819875,-0.991424560546875,0.102020263671875,-0.4804534912109375,126114.124908875,-1.349329022930513,-0.9305072199912195,-0.2789430795053677,0.8462022542953491,-0.103992335498333,-0.5273781418800354,-0.1335842609405518,-0.2248178422451019,0.0274600982666015,XArbitraryZVertical,-0.3745445096776185,-0.2693490712197553,-0.5041140961217513,0.7300935512808595,-0.7709263563156128,0.2753397226333618,-0.574334979057312,0,0,0,-1,-1,126113.940316875,walking,2,2024-04-17T12:59:32.839+02:00,,0,0,0,0,0,0,0,,735044372.9045589,0,-0.8400002,99.66835,
187,2024-04-17T12:59:33.100+02:00,126114.199742875,-1.032989501953125,0.07647705078125,-0.5952301025390625,126114.184775875,-1.336732452409834,-0.9403062874811706,-0.231470539081979,0.5468376874923706,-0.1816312074661255,-0.4015954732894897,-0.2206091284751892,-0.1835411489009857,0.0060687661170959,XArbitraryZVertical,-0.3596591446393957,-0.2893725310569028,-0.5077123774166917,0.7274180709841725,-0.7861964106559753,0.2294090837240219,-0.5738176703453064,0,0,0,-1,-1,126113.940316875,walking,2,2024-04-17T12:59:32.839+02:00,,0,0,0,0,0,0,0,,735044372.9045589,0,-0.8400002,99.66835,
188,2024-04-17T12:59:33.135+02:00,126114.234665875,-1.018875122070312,0.2649688720703125,-0.580474853515625,126114.184775875,-1.336732452409834,-0.9403062874811706,-0.231470539081979,0.5468376874923706,-0.1816312074661255,-0.4015954732894897,-0.2206091284751892,-0.1835411489009857,0.0060687661170959,XArbitraryZVertical,-0.3596591446393957,-0.2893725310569028,-0.5077123774166917,0.7274180709841725,-0.7861964106559753,0.2294090837240219,-0.5738176703453064,0,0,0,-1,-1,126113.940316875,walking,2,2024-04-17T12:59:32.839+02:00,,0,0,0,0,0,0,0,,735044372.9045589,0,-0.8400002,99.66835,
189,2024-04-17T12:59:33.170+02:00,126114.269588875,-0.8908233642578125,0.186981201171875,-0.64984130859375,126114.244643875,-1.321925178283521,-0.9437082875246464,-0.2052966242585,0.7494835257530212,-0.0565789379179477,-0.0720048993825912,-0.2331281900405884,0.0650176107883453,-0.0142015814781189,XArbitraryZVertical,-0.3496116259096383,-0.3008955976569208,-0.5071517177498001,0.7280321432234726,-0.7927356362342834,0.2038575708866119,-0.574467122554779,0,0,0,-1,-1,126113.940316875,walking,2,2024-04-17T12:59:32.839+02:00,,0,0,0,0,0,0,0,,735044372.9045589,0,-0.8400002,99.66835,
190,2024-04-17T12:59:33.205+02:00,126114.304510875,-0.8062286376953125,0.0332489013671875,-0.440399169921875,126114.244643875,-1.321925178283521,-0.9437082875246464,-0.2052966242585,0.7494835257530212,-0.0565789379179477,-0.0720048993825912,-0.2331281900405884,0.0650176107883453,-0.0142015814781189,XArbitraryZVertical,-0.3496116259096383,-0.3008955976569208,-0.5071517177498001,0.7280321432234726,-0.7927356362342834,0.2038575708866119,-0.574467122554779,0,0,0,-1,-1,126113.940316875,walking,2,2024-04-17T12:59:32.839+02:00,,0,0,0,0,0,0,0,,735044372.9045589,0,-0.8400002,99.66835,
191,2024-04-17T12:59:33.240+02:00,126114.339433875,-0.828094482421875,0.1083221435546875,-0.4747314453125,126114.304510875,-1.290102411074004,-0.9463208698173756,-0.1728050529320255,0.4035347402095795,-0.2059742361307144,-0.2584297955036163,-0.0331341028213501,-0.1074321120977402,0.104498028755188,XArbitraryZVertical,-0.3343434315379599,-0.3165951634306066,-0.5017630461243728,0.7322677197836777,-0.799187183380127,0.1719463020563126,-0.5759639739990234,0,0,0,-1,-1,126113.940316875,walking,2,2024-04-17T12:59:32.839+02:00,,0,0,0,0,0,0,0,,735044372.9045589,0,-0.8400002,99.66835,
192,2024-04-17T12:59:33.275+02:00,126114.374356875,-0.86383056640625,0.0945281982421875,-0.5878143310546875,126114.364378875,-1.308654037790072,-0.9565073133266409,-0.1735784329951238,-0.5816819071769714,-0.0031772134825587,-0.1246598213911057,-0.0379614233970642,-0.0833983719348907,-0.0865955352783203,XArbitraryZVertical,-0.3401133976372936,-0.3169615571162227,-0.5066506285883576,0.726060271542688,-0.8049037456512451,0.1727081090211868,-0.5677164793014526,0,0,0,-1,-1,126113.940316875,walking,2,2024-04-17T12:59:32.839+02:00,,0,0,0,0,0,0,0,,735044372.9045589,0,-0.8400002,99.66835,
193,2024-04-17T12:59:33.310+02:00,126114.409279875,-0.9745635986328124,0.142822265625,-0.4599761962890625,126114.364378875,-1.308654037790072,-0.9565073133266409,-0.1735784329951238,-0.5816819071769714,-0.0031772134825587,-0.1246598213911057,-0.0379614233970642,-0.0833983719348907,-0.0865955352783203,XArbitraryZVertical,-0.3401133976372936,-0.3169615571162227,-0.5066506285883576,0.726060271542688,-0.8049037456512451,0.1727081090211868,-0.5677164793014526,0,0,0,-1,-1,126113.940316875,walking,2,2024-04-17T12:59:32.839+02:00,,0,0,0,0,0,0,0,,735044372.9045589,0,-0.8400002,99.66835,
194,2024-04-17T12:59:33.345+02:00,126114.444201875,-1.087158203125,0.273956298828125,-1.12548828125,126114.424245875,-1.334496052185459,-0.9472531965335564,-0.1959522085907079,-0.2910991311073303,0.7290177941322327,0.0543126724660396,-0.1353772282600403,0.0939346402883529,-0.0285775065422058,XArbitraryZVertical,-0.3492847807841652,-0.3027041776005076,-0.5130171197698382,0.7233144520802611,-0.7962787747383118,0.194700613617897,-0.5727406740188599,0,0,0,-1,-1,126113.940316875,walking,2,2024-04-17T12:59:32.839+02:00,,0,0,0,0,0,0,0,,735044372.9045589,0,-0.8400002,99.66835,
195,2024-04-17T12:59:33.380+02:00,126114.479124875,-1.016830444335938,0.111724853515625,-0.532135009765625,126114.424245875,-1.334496052185459,-0.9472531965335564,-0.1959522085907079,-0.2910991311073303,0.7290177941322327,0.0543126724660396,-0.1353772282600403,0.0939346402883529,-0.0285775065422058,XArbitraryZVertical,-0.3492847807841652,-0.3027041776005076,-0.5130171197698382,0.7233144520802611,-0.7962787747383118,0.194700613617897,-0.5727406740188599,0,0,0,-1,-1,126113.940316875,walking,2,2024-04-17T12:59:32.839+02:00,,0,0,0,0,0,0,0,,735044372.9045589,0,-0.8400002,99.66835,
196,2024-04-17T12:59:33.414+02:00,126114.514047875,-1.14215087890625,0.2713470458984375,-0.8812713623046875,126114.484113875,-1.343065328695689,-0.904409264130579,-0.2070288168978422,-0.6306021213531494,0.7962412238121033,0.1495199203491211,-0.2475559711456299,-0.0938281863927841,0.0728151798248291,XArbitraryZVertical,-0.3431715759365166,-0.2824150101359393,-0.5213059992221312,0.7285019917580063,-0.7692745923995972,0.2055530697107315,-0.6049500703811646,0,0,0,-1,-1,126113.940316875,walking,2,2024-04-17T12:59:32.839+02:00,,0,0,0,0,0,0,0,,735044372.9045589,0,-0.8400002,99.66835,
197,2024-04-17T12:59:33.450+02:00,126114.548969875,-1.037765502929688,0.378662109375,-0.8081512451171875,126114.543981875,-1.411283843776249,-0.8498774419005098,-0.2732227997675519,-2.80907154083252,1.324152588844299,-0.1041321307420731,-0.3647543787956238,0.1761325895786285,-0.2311084866523743,XArbitraryZVertical,-0.3593173800644295,-0.2304250502050942,-0.5426034269504216,0.7234480703925478,-0.723334789276123,0.2698360979557037,-0.6355906128883362,0,0,0,-1,-1,126113.940316875,walking,2,2024-04-17T12:59:32.839+02:00,,0,0,0,0,0,0,0,,735044372.9045589,0,-0.8400002,99.66835,
198,2024-04-17T12:59:33.484+02:00,126114.583892875,-0.9567718505859376,0.36224365234375,-0.4237213134765625,126114.543981875,-1.411283843776249,-0.8498774419005098,-0.2732227997675519,-2.80907154083252,1.324152588844299,-0.1041321307420731,-0.3647543787956238,0.1761325895786285,-0.2311084866523743,XArbitraryZVertical,-0.3593173800644295,-0.2304250502050942,-0.5426034269504216,0.7234480703925478,-0.723334789276123,0.2698360979557037,-0.6355906128883362,0,0,0,-1,-1,126113.940316875,walking,2,2024-04-17T12:59:32.839+02:00,,0,0,0,0,0,0,0,,735044372.9045589,0,-0.8400002,99.66835,
199,2024-04-17T12:59:33.519+02:00,126114.618816,-0.8771209716796875,0.5598907470703125,-0.4872283935546875,126114.603848875,-1.628762744771494,-0.8458230972975789,-0.4410745913588304,-5.151349067687988,1.447348117828369,-0.3045822083950043,-0.2507332563400269,-0.0387125611305236,0.1536213755607605,XArbitraryZVertical,-0.4281750005827621,-0.1297717762981619,-0.5855431835675139,0.6759916092086288,-0.6768791675567627,0.4269114434719086,-0.5996509194374084,0,0,0,-1,-1,126113.940316875,walking,2,2024-04-17T12:59:32.839+02:00,,0,0,0,0,0,0,0,,735044372.9045589,0,-0.8400002,99.66835,
200,2024-04-17T12:59:33.554+02:00,126114.653739,-0.78594970703125,0.5741119384765625,-0.393768310546875,126114.603848875,-1.628762744771494,-0.8458230972975789,-0.4410745913588304,-5.151349067687988,1.447348117828369,-0.3045822083950043,-0.2507332563400269,-0.0387125611305236,0.1536213755607605,XArbitraryZVertical,-0.4281750005827621,-0.1297717762981619,-0.5855431835675139,0.6759916092086288,-0.6768791675567627,0.4269114434719086,-0.5996509194374084,0,0,0,-1,-1,126113.940316875,walking,2,2024-04-17T12:59:32.839+02:00,,0,0,0,0,0,0,0,,735044372.9045589,0,-0.8400002,99.66835,
201,2024-04-17T12:59:33.589+02:00,126114.688662,-0.7276153564453125,0.4949188232421875,-0.4104461669921875,126114.663717,-1.888457169250232,-0.8958614099853843,-0.5990948894887406,-4.511209011077881,1.129278182983398,-0.519412636756897,-0.1220071911811829,0.0104608535766601,0.1189326047897339,XArbitraryZVertical,-0.491168791566387,-0.0271955904460881,-0.6226779664486256,0.6085111904976717,-0.6447775959968567,0.5638952255249023,-0.5160272121429443,0,0,0,-1,-1,126113.940316875,walking,2,2024-04-17T12:59:32.839+02:00,,0,0,0,0,0,0,0,,735044372.9045589,0,-0.8400002,99.66835,
202,2024-04-17T12:59:33.624+02:00,126114.723584,-0.6635284423828125,0.60919189453125,-0.22320556640625,126114.663717,-1.888457169250232,-0.8958614099853843,-0.5990948894887406,-4.511209011077881,1.129278182983398,-0.519412636756897,-0.1220071911811829,0.0104608535766601,0.1189326047897339,XArbitraryZVertical,-0.491168791566387,-0.0271955904460881,-0.6226779664486256,0.6085111904976717,-0.6447775959968567,0.5638952255249023,-0.5160272121429443,0,0,0,-1,-1,126113.940316875,walking,2,2024-04-17T12:59:32.839+02:00,,0,0,0,0,0,0,0,,735044372.9045589,0,-0.8400002,99.66835,
203,2024-04-17T12:59:33.659+02:00,126114.758507,-0.6642303466796875,0.625244140625,-0.2735137939453125,126114.723584,-2.197976982080098,-1.034955466875235,-0.7268059352685363,-4.372914791107178,0.7522507905960083,-0.6667276620864868,-0.0386090278625488,-0.0298883318901062,0.1744986176490784,XArbitraryZVertical,-0.5522685080117603,0.0650153647916422,-0.6436470853693246,0.5258241177321484,-0.642558753490448,0.6644861102104187,-0.3815450072288513,0,0,0,-1,-1,126113.940316875,walking,2,2024-04-17T12:59:32.839+02:00,,0,0,0,0,0,0,0,,735044372.9045589,0,-0.8400002,99.66835,
204,2024-04-17T12:59:33.694+02:00,126114.79343,-0.6482696533203125,0.7196807861328125,-0.078216552734375,126114.783452,-2.537895322018974,-1.234064476590042,-0.7944383538953019,-3.553961753845215,0.5229641199111938,-0.6765210032463074,0.0130650401115417,-0.1623532176017761,0.0099977850914001,XArbitraryZVertical,-0.6032422918475362,0.1426323106380371,-0.6515487753250496,0.4373088331555637,-0.6613348126411438,0.7134701609611511,-0.2315095216035843,0,0,0,-1,-1,126113.940316875,walking,2,2024-04-17T12:59:32.839+02:00,,0,0,0,0,0,0,0,,735044372.9045589,0,-0.8400002,99.66835,
205,2024-04-17T12:59:33.729+02:00,126114.828353,-0.6559295654296875,0.6336212158203125,-0.127777099609375,126114.783452,-2.537895322018974,-1.234064476590042,-0.7944383538953019,-3.553961753845215,0.5229641199111938,-0.6765210032463074,0.0130650401115417,-0.1623532176017761,0.0099977850914001,XArbitraryZVertical,-0.6032422918475362,0.1426323106380371,-0.6515487753250496,0.4373088331555637,-0.6613348126411438,0.7134701609611511,-0.2315095216035843,0,0,0,-1,-1,126113.940316875,walking,2,2024-04-17T12:59:32.839+02:00,,0,0,0,0,0,0,0,,735044372.9045589,0,-0.8400002,99.66835,
206,2024-04-17T12:59:33.764+02:00,126114.863275,-0.71746826171875,0.66021728515625,-0.11444091796875,126114.843319,-2.810067037380437,-1.397600892788206,-0.799014772436522,-2.967284202575684,0.5153239965438843,-0.7117167115211487,0.0395640730857849,-0.1511785984039307,-0.0015944838523864,XArbitraryZVertical,-0.6336560633710375,0.1959262133175819,-0.6543688053115843,0.3631728239712826,-0.686979353427887,0.7166693210601807,-0.1201858222484589,0,0,0,-1,-1,126113.940316875,walking,2,2024-04-17T12:59:32.839+02:00,,0,0,0,0,0,0,0,,735044372.9045589,0,-0.8400002,99.66835,
207,2024-04-17T12:59:33.798+02:00,126114.898198,-0.6893768310546875,0.8199310302734375,-0.1834259033203125,126114.843319,-2.810067037380437,-1.397600892788206,-0.799014772436522,-2.967284202575684,0.5153239965438843,-0.7117167115211487,0.0395640730857849,-0.1511785984039307,-0.0015944838523864,XArbitraryZVertical,-0.6336560633710375,0.1959262133175819,-0.6543688053115843,0.3631728239712826,-0.686979353427887,0.7166693210601807,-0.1201858222484589,0,0,0,-1,-1,126113.940316875,walking,2,2024-04-17T12:59:32.839+02:00,,0,0,0,0,0,0,0,,735044372.9045589,0,-0.8400002,99.66835,
208,2024-04-17T12:59:33.834+02:00,126114.933121,-0.67205810546875,0.679718017578125,-0.1650848388671875,126114.903187,-3.001726432766053,-1.493284198359409,-0.7926713072778457,-1.056127190589905,0.7439073324203491,-0.1711488664150238,0.0104607939720153,0.1077001094818115,-0.1290709972381592,XArbitraryZVertical,-0.6447968220420552,0.2388716195490784,-0.6571015547613261,0.3088609341690467,-0.6998377442359924,0.712230920791626,-0.0543548166751861,0,0,0,-1,-1,126113.940316875,walking,2,2024-04-17T12:59:32.839+02:00,,0,0,0,0,0,0,0,,735044372.9045589,0,-0.8400002,99.66835,
209,2024-04-17T12:59:33.868+02:00,126114.968044,-0.697479248046875,0.7542724609375,-0.10247802734375,126114.963055,-3.072617554276567,-1.503264501571952,-0.7991814486352787,-0.7234836220741272,0.7734306454658508,0.2253157496452332,-0.0201160311698913,-0.0048562288284301,-0.0879559591412544,XArbitraryZVertical,-0.6384650300102511,0.2623652651769877,-0.663460945610882,0.2886981504267122,-0.6957045197486877,0.7167855501174927,-0.0470537468791008,0,0,0,-1,-1,126113.940316875,walking,2,2024-04-17T12:59:32.839+02:00,,0,0,0,0,0,0,0,,735044372.9045589,0,-0.8400002,99.66835,
210,2024-04-17T12:59:33.903+02:00,126115.002966,-0.6608734130859375,0.6433258056640625,-0.1451873779296875,126114.963055,-3.072617554276567,-1.503264501571952,-0.7991814486352787,-0.7234836220741272,0.7734306454658508,0.2253157496452332,-0.0201160311698913,-0.0048562288284301,-0.0879559591412544,XArbitraryZVertical,-0.6384650300102511,0.2623652651769877,-0.663460945610882,0.2886981504267122,-0.6957045197486877,0.7167855501174927,-0.0470537468791008,0,0,0,-1,-1,126113.940316875,walking,2,2024-04-17T12:59:32.839+02:00,,0,0,0,0,0,0,0,,735044372.9045589,0,-0.8400002,99.66835,
211,2024-04-17T12:59:33.938+02:00,126115.037889,-0.55902099609375,0.6443328857421875,-0.209381103515625,126115.022922,-3.10235275471171,-1.47007677510557,-0.8304397507524406,-0.4385184347629547,0.9068573713302612,0.6947041749954224,0.096135675907135,-0.1271288990974426,-0.1266779899597168,XArbitraryZVertical,-0.6193843873490633,0.287141313810087,-0.6733342744307639,0.283784922308594,-0.6711327433586121,0.7382280826568604,-0.0678256899118423,0,0,0,-1,-1,126113.940316875,walking,2,2024-04-17T12:59:32.839+02:00,,0,0,0,0,0,0,0,,735044372.9045589,0,-0.8400002,99.66835,
212,2024-04-17T12:59:33.973+02:00,126115.072812,-0.49041748046875,0.784271240234375,-0.1039276123046875,126115.022922,-3.10235275471171,-1.47007677510557,-0.8304397507524406,-0.4385184347629547,0.9068573713302612,0.6947041749954224,0.096135675907135,-0.1271288990974426,-0.1266779899597168,XArbitraryZVertical,-0.6193843873490633,0.287141313810087,-0.6733342744307639,0.283784922308594,-0.6711327433586121,0.7382280826568604,-0.0678256899118423,0,0,0,-1,-1,126113.940316875,walking,2,2024-04-17T12:59:32.839+02:00,,0,0,0,0,0,0,0,,735044372.9045589,0,-0.8400002,99.66835,
213,2024-04-17T12:59:34.008+02:00,126115.107735,-0.509429931640625,0.50213623046875,0.0284423828125,126115.08279,3.133722509573162,-1.442142795274568,-0.8721219851287336,-0.3115490972995758,1.104450821876526,0.4506893754005432,0.1426634788513184,0.0636653900146484,-0.0156832262873649,XArbitraryZVertical,-0.597157804053971,0.319595702513337,-0.6819048956547639,0.2761646728366567,-0.6378875970840454,0.7656955122947693,-0.0825222879648208,0,0,0,-1,-1,126113.940316875,walking,2,2024-04-17T12:59:32.839+02:00,,0,0,0,0,0,0,0,,735044372.9045589,0,-0.8400002,99.66835,
214,2024-04-17T12:59:34.043+02:00,126115.142657,-0.542236328125,0.709716796875,-0.01763916015625,126115.08279,3.133722509573162,-1.442142795274568,-0.8721219851287336,-0.3115490972995758,1.104450821876526,0.4506893754005432,0.1426634788513184,0.0636653900146484,-0.0156832262873649,XArbitraryZVertical,-0.597157804053971,0.319595702513337,-0.6819048956547639,0.2761646728366567,-0.6378875970840454,0.7656955122947693,-0.0825222879648208,0,0,0,-1,-1,126113.940316875,walking,2,2024-04-17T12:59:32.839+02:00,,0,0,0,0,0,0,0,,735044372.9045589,0,-0.8400002,99.66835,
215,2024-04-17T12:59:34.078+02:00,126115.17758,-0.5269927978515625,0.7850799560546875,0.0384979248046875,126115.142657,2.994467746230122,-1.488278792892343,-0.8918905447911586,-2.507085084915161,0.9828983545303344,-0.2724498510360718,0.0430414080619812,-0.0706493258476257,0.0130764320492744,XArbitraryZVertical,-0.586124217701124,0.3613581147704085,-0.6834013426093882,0.2425723418143403,-0.6258051991462708,0.7782602906227112,-0.0517574287950992,0,0,0,-1,-1,126113.940316875,walking,2,2024-04-17T12:59:32.839+02:00,,0,0,0,0,0,0,0,,735044372.9045589,0,-0.8400002,99.66835,
216,2024-04-17T12:59:34.113+02:00,126115.212503,-0.53875732421875,0.48974609375,0.123687744140625,126115.202525,2.836561472335532,-1.554826420478616,-0.8725682041083181,-1.042960286140442,1.00593900680542,-0.3856815993785858,0.1216461062431335,-0.2877262830734253,0.1035735607147217,XArbitraryZVertical,-0.5825964717214516,0.3942693871720835,-0.6835013972674204,0.1948304853512366,-0.6427795886993408,0.765982449054718,-0.0102660031989216,0,0,0,-1,-1,126113.940316875,walking,2,2024-04-17T12:59:32.839+02:00,,0,0,0,0,0,0,0,,735044372.9045589,0,-0.8400002,99.66835,
217,2024-04-17T12:59:34.148+02:00,126115.247426,-0.5059051513671875,0.3893890380859375,0.0596466064453125,126115.202525,2.836561472335532,-1.554826420478616,-0.8725682041083181,-1.042960286140442,1.00593900680542,-0.3856815993785858,0.1216461062431335,-0.2877262830734253,0.1035735607147217,XArbitraryZVertical,-0.5825964717214516,0.3942693871720835,-0.6835013972674204,0.1948304853512366,-0.6427795886993408,0.765982449054718,-0.0102660031989216,0,0,0,-1,-1,126113.940316875,walking,2,2024-04-17T12:59:32.839+02:00,,0,0,0,0,0,0,0,,735044372.9045589,0,-0.8400002,99.66835,
218,2024-04-17T12:59:34.183+02:00,126115.282348,-0.6123199462890625,0.7046966552734375,0.1444091796875,126115.262393,2.68635359186832,-1.605900955047953,-0.8467030981050236,-1.913176298141479,0.9614696502685548,-0.4166991412639618,0.081207275390625,-0.2959449887275696,0.1229897737503052,XArbitraryZVertical,-0.5745875218612712,0.4259981662813547,-0.6836255332199656,0.1450205346154412,-0.6620484590530396,0.7491004467010498,0.0232505165040493,0,0,0,-1,-1,126113.940316875,walking,2,2024-04-17T12:59:32.839+02:00,,0,0,0,0,0,0,0,,735044372.9045589,0,-0.8400002,99.66835,
219,2024-04-17T12:59:34.218+02:00,126115.317271,-0.6435699462890625,0.8058624267578125,0.0568695068359375,126115.262393,2.68635359186832,-1.605900955047953,-0.8467030981050236,-1.913176298141479,0.9614696502685548,-0.4166991412639618,0.081207275390625,-0.2959449887275696,0.1229897737503052,XArbitraryZVertical,-0.5745875218612712,0.4259981662813547,-0.6836255332199656,0.1450205346154412,-0.6620484590530396,0.7491004467010498,0.0232505165040493,0,0,0,-1,-1,126113.940316875,walking,2,2024-04-17T12:59:32.839+02:00,,0,0,0,0,0,0,0,,735044372.9045589,0,-0.8400002,99.66835,
220,2024-04-17T12:59:34.253+02:00,126115.352194,-0.7357330322265625,0.85821533203125,0.08349609375,126115.32226,2.603902770850678,-1.616778881879757,-0.8144430008694179,-0.256862074136734,0.6355200409889221,-0.6326572299003601,0.0419782400131225,0.0785188674926757,0.02532409876585,XArbitraryZVertical,-0.5675263347167981,0.4400984061301734,-0.6874823948849169,0.1076810340712376,-0.6855482459068298,0.7273434400558472,0.0315454937517643,0,0,0,-1,-1,126113.940316875,walking,2,2024-04-17T12:59:32.839+02:00,,0,0,0,0,0,0,0,,735044372.9045589,0,-0.8400002,99.66835,
221,2024-04-17T12:59:34.288+02:00,126115.387117,-0.8022918701171875,0.9647216796875,0.1185760498046875,126115.382128,2.613143044395355,-1.574277578879357,-0.7704888099448367,0.5279541015625,0.683043360710144,-0.7545767426490784,-0.0796599388122558,0.2408003211021423,0.1105695962905884,XArbitraryZVertical,-0.5643642447726469,0.4274833548044213,-0.7009538859336596,0.086109140310193,-0.717566192150116,0.6964860558509827,0.0024980388116091,0,0,0,-1,-1,126113.940316875,walking,2,2024-04-17T12:59:32.839+02:00,,0,0,0,0,0,0,0,,735044372.9045589,0,-0.8400002,99.66835,
222,2024-04-17T12:59:34.322+02:00,126115.422039,-0.80206298828125,1.107528686523438,-0.0347747802734375,126115.382128,2.613143044395355,-1.574277578879357,-0.7704888099448367,0.5279541015625,0.683043360710144,-0.7545767426490784,-0.0796599388122558,0.2408003211021423,0.1105695962905884,XArbitraryZVertical,-0.5643642447726469,0.4274833548044213,-0.7009538859336596,0.086109140310193,-0.717566192150116,0.6964860558509827,0.0024980388116091,0,0,0,-1,-1,126113.940316875,walking,2,2024-04-17T12:59:32.839+02:00,,0,0,0,0,0,0,0,,735044372.9045589,0,-0.8400002,99.66835,
223,2024-04-17T12:59:34.357+02:00,126115.456962,-0.807769775390625,1.151214599609375,-0.10589599609375,126115.441995,2.676584431310096,-1.489130720152684,-0.7419728293609394,0.2553859353065491,0.7121602296829224,-0.1164661049842834,-0.07659912109375,0.3626781105995178,-0.0199157558381557,XArbitraryZVertical,-0.5531291262060338,0.4049472150939584,-0.7235200728694361,0.0811461461312785,-0.7346802353858948,0.6757434606552124,-0.0601318441331386,0,0,0,-1,-1,126113.940316875,walking,2,2024-04-17T12:59:32.839+02:00,,0,0,0,0,0,0,0,,735044372.9045589,0,-0.8400002,99.66835,
224,2024-04-17T12:59:34.392+02:00,126115.491885,-0.8319244384765625,1.471878051757812,-0.1695404052734375,126115.441995,2.676584431310096,-1.489130720152684,-0.7419728293609394,0.2553859353065491,0.7121602296829224,-0.1164661049842834,-0.07659912109375,0.3626781105995178,-0.0199157558381557,XArbitraryZVertical,-0.5531291262060338,0.4049472150939584,-0.7235200728694361,0.0811461461312785,-0.7346802353858948,0.6757434606552124,-0.0601318441331386,0,0,0,-1,-1,126113.940316875,walking,2,2024-04-17T12:59:32.839+02:00,,0,0,0,0,0,0,0,,735044372.9045589,0,-0.8400002,99.66835,
225,2024-04-17T12:59:34.427+02:00,126115.526808,-0.7836761474609375,1.330917358398438,-0.246612548828125,126115.501863,2.672484502312183,-1.430782620609235,-0.7672163856229481,0.4987785220146179,1.403971195220947,0.9181291460990906,-0.1071906685829163,0.7933688759803772,-0.0882308483123779,XArbitraryZVertical,-0.5259280310181841,0.4161370616829907,-0.7378623885594423,0.0760849207689358,-0.7128015160560608,0.6941341757774353,-0.1004593074321747,0,0,0,-1,-1,126113.940316875,walking,2,2024-04-17T12:59:32.839+02:00,,0,0,0,0,0,0,0,,735044372.9045589,0,-0.8400002,99.66835,
226,2024-04-17T12:59:34.462+02:00,126115.561731,-0.7501373291015625,1.605911254882812,-0.1970062255859375,126115.501863,2.672484502312183,-1.430782620609235,-0.7672163856229481,0.4987785220146179,1.403971195220947,0.9181291460990906,-0.1071906685829163,0.7933688759803772,-0.0882308483123779,XArbitraryZVertical,-0.5259280310181841,0.4161370616829907,-0.7378623885594423,0.0760849207689358,-0.7128015160560608,0.6941341757774353,-0.1004593074321747,0,0,0,-1,-1,126113.940316875,walking,2,2024-04-17T12:59:32.839+02:00,,0,0,0,0,0,0,0,,735044372.9045589,0,-0.8400002,99.66835,
227,2024-04-17T12:59:34.498+02:00,126115.596653,-0.6876068115234375,1.256393432617188,-0.212615966796875,126115.561731,2.762561274713704,-1.269058849027439,-0.8321028623346911,1.497161507606506,1.711039185523987,1.776437759399414,-0.1056017875671387,0.8267979025840759,0.0042664557695388,XArbitraryZVertical,-0.4712040373557478,0.4218031268315647,-0.7685915841109738,0.0965189548728406,-0.6429029107093811,0.7393488883972168,-0.2000977545976639,0,0,0,-1,-1,126113.940316875,walking,2,2024-04-17T12:59:32.839+02:00,,0,0,0,0,0,0,0,,735044372.9045589,0,-0.8400002,99.66835,
228,2024-04-17T12:59:34.532+02:00,126115.631577375,-0.350830078125,1.3251953125,-0.095794677734375,126115.621599375,2.999770091179521,-0.9767907452022728,-0.9084948508480026,2.073991060256958,1.803367018699646,2.530972242355347,0.0429543852806091,0.5534467101097107,0.1602853536605835,XArbitraryZVertical,-0.3931138628205967,0.4163856019336942,-0.8061274147773028,0.1491417376234339,-0.5095987915992737,0.7885790467262268,-0.3441690504550934,0,0,0,-1,-1,126113.940316875,walking,2,2024-04-17T12:59:32.839+02:00,,0,0,0,0,0,0,0,,735044372.9045589,0,-0.8400002,99.66835,
229,2024-04-17T12:59:34.567+02:00,126115.666500375,-0.16021728515625,0.95526123046875,0.029754638671875,126115.621599375,2.999770091179521,-0.9767907452022728,-0.9084948508480026,2.073991060256958,1.803367018699646,2.530972242355347,0.0429543852806091,0.5534467101097107,0.1602853536605835,XArbitraryZVertical,-0.3931138628205967,0.4163856019336942,-0.8061274147773028,0.1491417376234339,-0.5095987915992737,0.7885790467262268,-0.3441690504550934,0,0,0,-1,-1,126113.940316875,walking,2,2024-04-17T12:59:32.839+02:00,,0,0,0,0,0,0,0,,735044372.9045589,0,-0.8400002,99.66835,
230,2024-04-17T12:59:34.602+02:00,126115.701422375,0.126678466796875,0.6551361083984375,0.17547607421875,126115.681467375,-2.95079932285337,-0.6113750504020545,-0.9327339591690772,1.815771460533142,1.350876331329346,2.703978776931763,0.2657524347305298,0.0245836973190307,0.5754836797714233,XArbitraryZVertical,-0.3084316164303245,0.4012444643150371,-0.8350364335890975,0.2158402326951677,-0.3418938815593719,0.8032513856887817,-0.4877456426620483,0,0,0,-1,-1,126113.940316875,walking,2,2024-04-17T12:59:32.839+02:00,,0,0,0,0,0,0,0,,735044372.9045589,0,-0.8400002,99.66835,
231,2024-04-17T12:59:34.637+02:00,126115.736345375,0.3420562744140625,0.404693603515625,0.349609375,126115.681467375,-2.95079932285337,-0.6113750504020545,-0.9327339591690772,1.815771460533142,1.350876331329346,2.703978776931763,0.2657524347305298,0.0245836973190307,0.5754836797714233,XArbitraryZVertical,-0.3084316164303245,0.4012444643150371,-0.8350364335890975,0.2158402326951677,-0.3418938815593719,0.8032513856887817,-0.4877456426620483,0,0,0,-1,-1,126113.940316875,walking,2,2024-04-17T12:59:32.839+02:00,,0,0,0,0,0,0,0,,735044372.9045589,0,-0.8400002,99.66835,
232,2024-04-17T12:59:34.672+02:00,126115.771268375,0.4692230224609375,0.6402587890625,0.48876953125,126115.741334375,-2.649627874714538,-0.3206894897333698,-0.910609435220984,1.395538568496704,0.2675580084323883,2.379120349884033,0.5353700518608093,-0.3851840496063232,0.9316086769104004,XArbitraryZVertical,-0.2447835035909406,0.3861106213042222,-0.8428218863556171,0.2839910878577404,-0.1933138370513916,0.7898776531219482,-0.5819992423057556,0,0,0,-1,-1,126113.940316875,walking,2,2024-04-17T12:59:32.839+02:00,,0,0,0,0,0,0,0,,735044372.9045589,0,-0.8400002,99.66835,
233,2024-04-17T12:59:34.707+02:00,126115.806191375,0.541839599609375,0.5028076171875,0.4438934326171875,126115.801202375,-2.442416041801828,-0.1742748158537149,-0.8860695297510893,0.4393121898174286,-0.744621217250824,1.486676812171936,0.644744873046875,-0.29085773229599,1.082247138023376,XArbitraryZVertical,-0.2201410506494387,0.3742957121681902,-0.8328098412926175,0.3433197956152425,-0.1096650138497353,0.774591863155365,-0.622881293296814,0,0,0,-1,-1,126113.940316875,walking,2,2024-04-17T12:59:32.839+02:00,,0,0,0,0,0,0,0,,735044372.9045589,0,-0.8400002,99.66835,
234,2024-04-17T12:59:34.741+02:00,126115.841114375,0.2609405517578125,0.37371826171875,0.2378082275390625,126115.801202375,-2.442416041801828,-0.1742748158537149,-0.8860695297510893,0.4393121898174286,-0.744621217250824,1.486676812171936,0.644744873046875,-0.29085773229599,1.082247138023376,XArbitraryZVertical,-0.2201410506494387,0.3742957121681902,-0.8328098412926175,0.3433197956152425,-0.1096650138497353,0.774591863155365,-0.622881293296814,0,0,0,-1,-1,126113.940316875,walking,2,2024-04-17T12:59:32.839+02:00,,0,0,0,0,0,0,0,,735044372.9045589,0,-0.8400002,99.66835,
235,2024-04-17T12:59:34.776+02:00,126115.876036375,0.0081024169921875,-0.14129638671875,-0.169036865234375,126115.861069375,-2.36255926078661,-0.2036806240912561,-0.8283509917243268,2.198557138442993,-2.395002603530884,-0.0115455538034439,0.3307414948940277,-0.3228923678398132,0.9222478866577148,XArbitraryZVertical,-0.2381264891816491,0.3350190735664367,-0.8269503016481311,0.3836810540059977,-0.1367565989494324,0.736817479133606,-0.6621159911155701,0,0,0,-1,-1,126113.940316875,walking,2,2024-04-17T12:59:32.839+02:00,,0,0,0,0,0,0,0,,735044372.9045589,0,-0.8400002,99.66835,
236,2024-04-17T12:59:34.811+02:00,126115.910959375,-0.754425048828125,0.1422271728515625,-0.128875732421875,126115.861069375,-2.36255926078661,-0.2036806240912561,-0.8283509917243268,2.198557138442993,-2.395002603530884,-0.0115455538034439,0.3307414948940277,-0.3228923678398132,0.9222478866577148,XArbitraryZVertical,-0.2381264891816491,0.3350190735664367,-0.8269503016481311,0.3836810540059977,-0.1367565989494324,0.736817479133606,-0.6621159911155701,0,0,0,-1,-1,126113.940316875,walking,2,2024-04-17T12:59:32.839+02:00,,0,0,0,0,0,0,0,,735044372.9045589,0,-0.8400002,99.66835,
237,2024-04-17T12:59:34.846+02:00,126115.945882375,-2.154632568359375,0.1151275634765625,-1.249526977539062,126115.920937375,-2.366132512243043,-0.3974681945979437,-0.7207065256294349,1.115460515022278,-3.681883811950684,-1.514793872833252,-0.6447603106498718,-0.6318395733833313,0.472385585308075,XArbitraryZVertical,-0.301725835929603,0.2501547455713971,-0.822938049607953,0.4112872200053772,-0.2908324301242828,0.6599156856536865,-0.6927682757377625,0,0,0,-1,-1,126113.940316875,walking,2,2024-04-17T12:59:32.839+02:00,,0,0,0,0,0,0,0,,735044372.9045589,0,-0.8400002,99.66835,
238,2024-04-17T12:59:34.881+02:00,126115.980804375,-2.307113647460938,0.670074462890625,-1.24530029296875,126115.920937375,-2.366132512243043,-0.3974681945979437,-0.7207065256294349,1.115460515022278,-3.681883811950684,-1.514793872833252,-0.6447603106498718,-0.6318395733833313,0.472385585308075,XArbitraryZVertical,-0.301725835929603,0.2501547455713971,-0.822938049607953,0.4112872200053772,-0.2908324301242828,0.6599156856536865,-0.6927682757377625,0,0,0,-1,-1,126113.940316875,walking,2,2024-04-17T12:59:32.839+02:00,,0,0,0,0,0,0,0,,735044372.9045589,0,-0.8400002,99.66835,
239,2024-04-17T12:59:34.916+02:00,126116.015727375,-1.647171020507812,0.4866943359375,-0.9991912841796876,126115.980804375,-2.488424365532468,-0.6520229399500493,-0.6754415242598291,-0.3757356703281403,-1.765770673751831,-1.350946187973022,-1.945551156997681,0.0887014865875244,-0.7114552855491638,XArbitraryZVertical,-0.386901403136352,0.2003532317193222,-0.8125280668689085,0.3872520315467437,-0.473562091588974,0.6252419352531433,-0.6203317642211914,0,0,0,-1,-1,126113.940316875,walking,2,2024-04-17T12:59:32.839+02:00,,0,0,0,0,0,0,0,,735044372.9045589,0,-0.8400002,99.66835,
240,2024-04-17T12:59:34.951+02:00,126116.050650375,-1.166168212890625,0.2433013916015625,-0.95867919921875,126116.040672375,-2.522719263452916,-0.7295958462930041,-0.642636143219372,0.6893138885498047,-0.519049882888794,-0.2369749546051025,-0.8053278923034668,-0.3079870343208313,-0.3903034925460815,XArbitraryZVertical,-0.4122692625744874,0.1779415240124015,-0.8099742718564688,0.3772433682603073,-0.5336004495620728,0.5993077754974365,-0.5967417359352112,0,0,0,-1,-1,126113.940316875,walking,2,2024-04-17T12:59:32.839+02:00,,0,0,0,0,0,0,0,,735044372.9045589,0,-0.8400002,99.66835,
241,2024-04-17T12:59:34.986+02:00,126116.085573375,-0.9067535400390624,0.1407318115234375,-0.8496246337890625,126116.040672375,-2.522719263452916,-0.7295958462930041,-0.642636143219372,0.6893138885498047,-0.519049882888794,-0.2369749546051025,-0.8053278923034668,-0.3079870343208313,-0.3903034925460815,XArbitraryZVertical,-0.4122692625744874,0.1779415240124015,-0.8099742718564688,0.3772433682603073,-0.5336004495620728,0.5993077754974365,-0.5967417359352112,0,0,0,-1,-1,126113.940316875,walking,2,2024-04-17T12:59:32.839+02:00,,0,0,0,0,0,0,0,,735044372.9045589,0,-0.8400002,99.66835,
242,2024-04-17T12:59:35.021+02:00,126116.120495375,-0.8549652099609375,0.3428955078125,-0.8281097412109375,126116.100540375,-2.495308011300655,-0.7502446461949926,-0.6182939706161007,0.1914923787117004,-0.7814309000968933,0.1582482755184174,-0.3245351910591125,-0.4050548076629639,-0.2268425822257996,XArbitraryZVertical,-0.4208474137499954,0.1576079963248179,-0.8050796106961435,0.3871615172062504,-0.5555918216705322,0.5796458125114441,-0.5960943698883057,0,0,0,-1,-1,126113.940316875,walking,2,2024-04-17T12:59:32.839+02:00,,0,0,0,0,0,0,0,,735044372.9045589,0,-0.8400002,99.66835,
243,2024-04-17T12:59:35.056+02:00,126116.155418375,-0.763275146484375,0.2953948974609375,-0.8318023681640625,126116.100540375,-2.495308011300655,-0.7502446461949926,-0.6182939706161007,0.1914923787117004,-0.7814309000968933,0.1582482755184174,-0.3245351910591125,-0.4050548076629639,-0.2268425822257996,XArbitraryZVertical,-0.4208474137499954,0.1576079963248179,-0.8050796106961435,0.3871615172062504,-0.5555918216705322,0.5796458125114441,-0.5960943698883057,0,0,0,-1,-1,126113.940316875,walking,2,2024-04-17T12:59:32.839+02:00,,0,0,0,0,0,0,0,,735044372.9045589,0,-0.8400002,99.66835,
244,2024-04-17T12:59:35.091+02:00,126116.190341375,-0.67510986328125,0.516357421875,-0.690185546875,126116.160407375,-2.481591289333634,-0.799836837012435,-0.6166991394267777,-0.1970252692699432,-1.167216777801514,0.2200065553188324,-0.1781547069549561,-0.2829506397247314,-0.263339102268219,XArbitraryZVertical,-0.4415457122712884,0.1442420616332138,-0.7920048959573537,0.3961817009730675,-0.5851206183433533,0.5783454775810242,-0.5684632062911987,0,0,0,-1,-1,126113.940316875,walking,2,2024-04-17T12:59:32.839+02:00,,0,0,0,0,0,0,0,,735044372.9045589,0,-0.8400002,99.66835,
245,2024-04-17T12:59:35.126+02:00,126116.225264375,-0.564300537109375,0.6506500244140625,-0.5908050537109375,126116.220275375,-2.493403166480872,-0.8821298801925904,-0.646312091220501,-0.0843775942921638,-1.248787641525269,0.1479693502187729,0.0300211906433105,0.1080959439277649,-0.0881414413452148,XArbitraryZVertical,-0.4751802658587274,0.1433086412764172,-0.7696762828920204,0.4015780065672492,-0.6163707375526428,0.6022464036941528,-0.5073326826095581,0,0,0,-1,-1,126113.940316875,walking,2,2024-04-17T12:59:32.839+02:00,,0,0,0,0,0,0,0,,735044372.9045589,0,-0.8400002,99.66835,
246,2024-04-17T12:59:35.161+02:00,126116.260186375,-0.554290771484375,0.615631103515625,-0.6467132568359375,126116.220275375,-2.493403166480872,-0.8821298801925904,-0.646312091220501,-0.0843775942921638,-1.248787641525269,0.1479693502187729,0.0300211906433105,0.1080959439277649,-0.0881414413452148,XArbitraryZVertical,-0.4751802658587274,0.1433086412764172,-0.7696762828920204,0.4015780065672492,-0.6163707375526428,0.6022464036941528,-0.5073326826095581,0,0,0,-1,-1,126113.940316875,walking,2,2024-04-17T12:59:32.839+02:00,,0,0,0,0,0,0,0,,735044372.9045589,0,-0.8400002,99.66835,
247,2024-04-17T12:59:35.196+02:00,126116.295109375,-0.4507598876953125,0.5653076171875,-0.54876708984375,126116.280142375,-2.520293891216605,-0.9643183859946236,-0.6604366502052472,-1.475295782089233,-1.030612111091614,-0.1595618724822998,0.13303142786026,-0.0696995854377746,-0.1748750805854797,XArbitraryZVertical,-0.5054612828512026,0.1394506134134506,-0.7520508899980733,0.3993518807702105,-0.6488854885101318,0.6134617328643799,-0.4501248300075531,0,0,0,-1,-1,126113.940316875,walking,2,2024-04-17T12:59:32.839+02:00,,0,0,0,0,0,0,0,,735044372.9045589,0,-0.8400002,99.66835,
248,2024-04-17T12:59:35.231+02:00,126116.330032375,-0.44085693359375,0.8648223876953125,-0.371795654296875,126116.280142375,-2.520293891216605,-0.9643183859946236,-0.6604366502052472,-1.475295782089233,-1.030612111091614,-0.1595618724822998,0.13303142786026,-0.0696995854377746,-0.1748750805854797,XArbitraryZVertical,-0.5054612828512026,0.1394506134134506,-0.7520508899980733,0.3993518807702105,-0.6488854885101318,0.6134617328643799,-0.4501248300075531,0,0,0,-1,-1,126113.940316875,walking,2,2024-04-17T12:59:32.839+02:00,,0,0,0,0,0,0,0,,735044372.9045589,0,-0.8400002,99.66835,
249,2024-04-17T12:59:35.265+02:00,126116.364955375,-0.4883270263671875,0.6952056884765625,-0.41156005859375,126116.340010375,-2.659978513685424,-1.108063818455993,-0.703723612303606,-0.9638338685035706,-0.7544580698013306,-0.3198086619377136,0.2350067496299744,0.2606841921806335,-0.0499711632728576,XArbitraryZVertical,-0.5495337255713001,0.1668484422651678,-0.7320298156331732,0.3664789827316721,-0.6822572350502014,0.6470611691474915,-0.3403485715389252,0,0,0,-1,-1,126113.940316875,walking,2,2024-04-17T12:59:32.839+02:00,,0,0,0,0,0,0,0,,735044372.9045589,0,-0.8400002,99.66835,
250,2024-04-17T12:59:35.300+02:00,126116.399877375,-0.5305938720703125,0.7718353271484375,-0.401885986328125,126116.340010375,-2.659978513685424,-1.108063818455993,-0.703723612303606,-0.9638338685035706,-0.7544580698013306,-0.3198086619377136,0.2350067496299744,0.2606841921806335,-0.0499711632728576,XArbitraryZVertical,-0.5495337255713001,0.1668484422651678,-0.7320298156331732,0.3664789827316721,-0.6822572350502014,0.6470611691474915,-0.3403485715389252,0,0,0,-1,-1,126113.940316875,walking,2,2024-04-17T12:59:32.839+02:00,,0,0,0,0,0,0,0,,735044372.9045589,0,-0.8400002,99.66835,
251,2024-04-17T12:59:35.335+02:00,126116.434800375,-0.608642578125,1.009841918945312,-0.3215484619140625,126116.399877375,-2.754116585343624,-1.213240546758638,-0.7076438885869758,-1.16716456413269,-0.9036241173744202,-0.3851820528507233,0.215299665927887,0.0420171022415161,-0.1671223342418671,XArbitraryZVertical,-0.5795809013447355,0.1763794673789063,-0.71823850230382,0.3422129063082431,-0.7118359804153442,0.6500451564788818,-0.2659525275230408,0,0,0,-1,-1,126113.940316875,walking,2,2024-04-17T12:59:32.839+02:00,,0,0,0,0,0,0,0,,735044372.9045589,0,-0.8400002,99.66835,
252,2024-04-17T12:59:35.370+02:00,126116.469723375,-0.5498809814453125,0.7197265625,-0.34271240234375,126116.459745375,-2.763970815297641,-1.256075857750814,-0.6915104002883073,0.9047334790229796,-0.5779860019683838,-0.1615995317697525,0.2094088196754456,0.2226501703262329,-0.118903636932373,XArbitraryZVertical,-0.5944342816155485,0.1656108211407108,-0.7103902763072041,0.3384770397500569,-0.7324497699737549,0.6377013325691223,-0.2384418845176697,0,0,0,-1,-1,126113.940316875,walking,2,2024-04-17T12:59:32.839+02:00,,0,0,0,0,0,0,0,,735044372.9045589,0,-0.8400002,99.66835,
253,2024-04-17T12:59:35.405+02:00,126116.504646375,-0.5571136474609375,0.6680908203125,-0.2920379638671875,126116.459745375,-2.763970815297641,-1.256075857750814,-0.6915104002883073,0.9047334790229796,-0.5779860019683838,-0.1615995317697525,0.2094088196754456,0.2226501703262329,-0.118903636932373,XArbitraryZVertical,-0.5944342816155485,0.1656108211407108,-0.7103902763072041,0.3384770397500569,-0.7324497699737549,0.6377013325691223,-0.2384418845176697,0,0,0,-1,-1,126113.940316875,walking,2,2024-04-17T12:59:32.839+02:00,,0,0,0,0,0,0,0,,735044372.9045589,0,-0.8400002,99.66835,
254,2024-04-17T12:59:35.440+02:00,126116.539568375,-0.56378173828125,0.776702880859375,-0.38623046875,126116.519612375,-2.697203391278835,-1.251372697897441,-0.6827728735013523,0.9604048132896424,-0.724612832069397,0.3074848651885986,0.1908515691757202,0.093830406665802,-0.0490695089101791,XArbitraryZVertical,-0.5980919711468905,0.1430865284821808,-0.7017994307966102,0.3595689684581478,-0.7365822792053223,0.630946695804596,-0.2436244785785675,0,0,0,-1,-1,126113.940316875,walking,2,2024-04-17T12:59:32.839+02:00,,0,0,0,0,0,0,0,,735044372.9045589,0,-0.8400002,99.66835,
255,2024-04-17T12:59:35.475+02:00,126116.574491375,-0.5988616943359375,0.52142333984375,-0.41253662109375,126116.519612375,-2.697203391278835,-1.251372697897441,-0.6827728735013523,0.9604048132896424,-0.724612832069397,0.3074848651885986,0.1908515691757202,0.093830406665802,-0.0490695089101791,XArbitraryZVertical,-0.5980919711468905,0.1430865284821808,-0.7017994307966102,0.3595689684581478,-0.7365822792053223,0.630946695804596,-0.2436244785785675,0,0,0,-1,-1,126113.940316875,walking,2,2024-04-17T12:59:32.839+02:00,,0,0,0,0,0,0,0,,735044375.4529403,0,-1.16,99.67204,
256,2024-04-17T12:59:35.510+02:00,126116.609414375,-0.6893768310546875,0.644256591796875,-0.4169464111328125,126116.579480375,-2.587979915189549,-1.242377252946559,-0.6755025100050528,1.26130473613739,-1.240832328796387,0.3885589838027954,0.1398217678070068,-0.1038662791252136,-0.1608231365680695,XArbitraryZVertical,-0.6018571467221964,0.109138845607335,-0.6853327784748615,0.3951907000342653,-0.7386835217475891,0.6252895593643188,-0.251713365316391,0,0,0,-1,-1,126113.940316875,walking,2,2024-04-17T12:59:32.839+02:00,,0,0,0,0,0,0,0,,735044375.4529403,0,-1.16,99.67204,
257,2024-04-17T12:59:35.545+02:00,126116.644337375,-0.7486114501953125,0.8608551025390625,-0.427337646484375,126116.639348375,-2.52314340998695,-1.288519432449152,-0.6688674770792349,1.546208143234253,-1.446374416351318,-0.156374529004097,0.0110747814178466,0.1712381839752197,-0.1791657209396362,XArbitraryZVertical,-0.6202874382572094,0.0773402611429587,-0.659431924926556,0.4176262378286544,-0.7534760236740112,0.6200978755950928,-0.2185239493846893,0,0,0,-1,-1,126113.940316875,walking,2,2024-04-17T12:59:32.839+02:00,,0,0,0,0,0,0,0,,735044375.4529403,0,-1.16,99.67204,
258,2024-04-17T12:59:35.580+02:00,126116.679259375,-0.7740936279296875,0.6632537841796875,-0.2826080322265625,126116.639348375,-2.52314340998695,-1.288519432449152,-0.6688674770792349,1.546208143234253,-1.446374416351318,-0.156374529004097,0.0110747814178466,0.1712381839752197,-0.1791657209396362,XArbitraryZVertical,-0.6202874382572094,0.0773402611429587,-0.659431924926556,0.4176262378286544,-0.7534760236740112,0.6200978755950928,-0.2185239493846893,0,0,0,-1,-1,126113.940316875,walking,2,2024-04-17T12:59:32.839+02:00,,0,0,0,0,0,0,0,,735044375.4529403,0,-1.16,99.67204,
259,2024-04-17T12:59:35.615+02:00,126116.714182375,-0.797210693359375,0.794921875,-0.1755218505859375,126116.699215375,-2.363836780154684,-1.274184088093937,-0.6147996707159793,2.693096160888672,-1.324097752571106,-0.2293000966310501,0.0305610299110412,0.0508143305778503,0.0738451480865478,XArbitraryZVertical,-0.6168606687139828,0.0100944020972321,-0.6406993163995247,0.4570399464750066,-0.7812173366546631,0.5767948627471924,-0.2387620359659195,0,0,0,-1,-1,126113.940316875,walking,2,2024-04-17T12:59:32.839+02:00,,0,0,0,0,0,0,0,,735044375.4529403,0,-1.16,99.67204,
260,2024-04-17T12:59:35.650+02:00,126116.749105375,-0.79736328125,0.538482666015625,-0.1824188232421875,126116.699215375,-2.363836780154684,-1.274184088093937,-0.6147996707159793,2.693096160888672,-1.324097752571106,-0.2293000966310501,0.0305610299110412,0.0508143305778503,0.0738451480865478,XArbitraryZVertical,-0.6168606687139828,0.0100944020972321,-0.6406993163995247,0.4570399464750066,-0.7812173366546631,0.5767948627471924,-0.2387620359659195,0,0,0,-1,-1,126113.940316875,walking,2,2024-04-17T12:59:32.839+02:00,,0,0,0,0,0,0,0,,735044375.4529403,0,-1.16,99.67204,
261,2024-04-17T12:59:35.684+02:00,126116.784027375,-0.72332763671875,0.4588165283203125,-0.2439117431640625,126116.759083375,-2.127672938399707,-1.208247342140632,-0.5451103445738015,3.699071168899536,-0.8943440914154053,0.1214507296681404,0.0217463970184326,-0.0155827403068542,0.1274464130401611,XArbitraryZVertical,-0.5858296628620928,-0.0719346205943118,-0.6186855774986103,0.5185144326813876,-0.7994869947433472,0.5185124278068542,-0.3032580316066742,0,0,0,-1,-1,126113.940316875,walking,2,2024-04-17T12:59:32.839+02:00,,0,0,0,0,0,0,0,,735044375.4529403,0,-1.16,99.67204,
262,2024-04-17T12:59:35.720+02:00,126116.818950375,-0.703216552734375,0.263641357421875,-0.17108154296875,126116.759083375,-2.127672938399707,-1.208247342140632,-0.5451103445738015,3.699071168899536,-0.8943440914154053,0.1214507296681404,0.0217463970184326,-0.0155827403068542,0.1274464130401611,XArbitraryZVertical,-0.5858296628620928,-0.0719346205943118,-0.6186855774986103,0.5185144326813876,-0.7994869947433472,0.5185124278068542,-0.3032580316066742,0,0,0,-1,-1,126113.940316875,walking,2,2024-04-17T12:59:32.839+02:00,,0,0,0,0,0,0,0,,735044375.4529403,0,-1.16,99.67204,
263,2024-04-17T12:59:35.754+02:00,126116.853873375,-0.78515625,0.498077392578125,-0.1854095458984375,126116.818950375,-1.906440700249795,-1.153085324693702,-0.4849928152767746,2.201709747314453,-0.955644965171814,0.5393720865249634,0.0946090221405029,-0.2035829126834869,0.1852878034114838,XArbitraryZVertical,-0.5480026340258022,-0.1423012531954776,-0.587698742249205,0.5779739904581332,-0.8086137771606445,0.4662019908428192,-0.3588869273662567,0,0,0,-1,-1,126113.940316875,walking,2,2024-04-17T12:59:32.839+02:00,,0,0,0,0,0,0,0,,735044375.4529403,0,-1.16,99.67204,
